gauge_id,gauge_name,country,gauge_lat,gauge_lon,area
hysets_01010070,"Big Black River near Depot Mtn, Maine",United States of America,46.89388889,-69.7516667,475.0072794258802
hysets_01012570,FISH RIVER AT INLET FISH RIVER LAKE ME SITE 4,United States of America,46.7894861,-68.773225,180.0607090522829
hysets_01016500,"MACHIAS RIVER NEAR ASHLAND, ME",United States of America,46.6283111,-68.4347917,844.6274963308027
hysets_01017290,"Little Madawaska River at Caribou, Maine",United States of America,46.8886111,-67.945,598.5994502802909
hysets_01017960,"Meduxnekeag R above S Br Medux. R nr Houlton, ME",United States of America,46.105,-67.88138889,224.8958259948341
hysets_01018000,"Meduxnekeag River near Houlton, Maine",United States of America,46.105,-67.8666667,449.2312398859856
hysets_01018035,"Meduxnekeag River at Lowery Rd. nr Houlton, Maine",United States of America,46.1811111,-67.80388889,670.4063631514284
hysets_01021500,"Machias River at Whitneyville, Maine",United States of America,44.72305556,-67.5205556,1181.4540698956268
hysets_01022260,"Pleasant River near Epping, Maine",United States of America,44.69777778,-67.7872222,161.88181061130035
hysets_01022330,"Narraguagus River at Deblois, Maine",United States of America,44.7408333,-68.0133333,264.72333227669805
hysets_01022500,"Narraguagus River at Cherryfield, Maine",United States of America,44.60805556,-67.93527778,587.3929751417464
hysets_01027200,"North Branch Penobscot River nr Pittston Farm, ME",United States of America,45.93527778,-69.9936111,580.7643447809344
hysets_01029200,"Seboeis River near Shin Pond, Maine",United States of America,46.14305556,-68.6336111,443.645308626928
hysets_01030350,Wytopitlock Stream near Wytopitlock Maine,United States of America,45.7086111,-68.1580556,127.311076160049
hysets_01031300,"Piscataquis River at Blanchard, Maine",United States of America,45.2672222,-69.58388889,303.4463664268476
hysets_01031450,"Kingsbury Stream at Abbot Village, Maine",United States of America,45.1844444,-69.4522222,238.08556305813497
hysets_01031500,"Piscataquis River near Dover-Foxcroft, Maine",United States of America,45.175,-69.3147222,767.0253093505211
hysets_01038000,"Sheepscot River at North Whitefield, Maine",United States of America,44.22277778,-69.59388889,374.1723203529344
hysets_01044550,"Spencer Stream near Grand Falls, Maine",United States of America,45.3136111,-70.2416667,502.8386981558034
hysets_01046000,"Austin Stream at Bingham, Maine",United States of America,45.0644444,-69.8805556,242.56922305318483
hysets_01047000,"Carrabassett River near North Anson, Maine",United States of America,44.86916667,-69.955,910.93124118107
hysets_01048000,"Sandy River near Mercer, Maine",United States of America,44.70805556,-69.9375,1336.2822371585974
hysets_01052500,"Diamond River near Wentworth Location, NH",United States of America,44.8775,-71.0575,394.4682999679979
hysets_01054200,"Wild River at Gilead, Maine",United States of America,44.39055556,-70.9797222,180.3925138437776
hysets_01054300,"Ellis River at South Andover, Maine",United States of America,44.5933333,-70.7330556,336.6305999836657
hysets_01055000,"Swift River near Roxbury, Maine",United States of America,44.64277778,-70.58888889,249.9442825143387
hysets_01055500,"Nezinscot River at Turner Center, Maine",United States of America,44.26944444,-70.2297222,436.1968122355826
hysets_01057000,"Little Androscoggin River near South Paris, Maine",United States of America,44.30388889,-70.5397222,190.26322898521863
hysets_01060000,"Royal River at Yarmouth, Maine",United States of America,43.79915,-70.1782694,364.3228422836963
hysets_01063100,"Crooked River near Naples, Maine",United States of America,43.978975,-70.56365,384.2451144038436
hysets_01064500,"Saco River near Conway, NH",United States of America,43.9908333,-71.0905556,993.7863867659904
hysets_01064801,"BEARCAMP RIVER AT SOUTH TAMWORTH, NH",United States of America,43.83007396,-71.2878488,172.55413009685302
hysets_01073587,"EXETER RIVER AT HAIGH ROAD, NEAR BRENTWOOD, NH",United States of America,42.9845316,-71.038392,162.15085708800558
hysets_01074520,"EAST BRANCH PEMIGEWASSET RIVER AT LINCOLN, NH",United States of America,44.0475669,-71.6598029,296.4509751708216
hysets_01075000,"PEMIGEWASSET RIVER AT WOODSTOCK, NH",United States of America,43.9761792,-71.6795244,502.8861406680688
hysets_01076000,"BAKER RIVER NEAR RUMNEY, NH",United States of America,43.79562647,-71.8453594,369.18930266621095
hysets_01076500,"PEMIGEWASSET RIVER AT PLYMOUTH, NH",United States of America,43.7592388,-71.6856337,1609.2722815613924
hysets_01078000,"SMITH RIVER NEAR BRISTOL, NH",United States of America,43.56646307,-71.747857,221.2938233553733
hysets_01086000,"WARNER RIVER AT DAVISVILLE, NH",United States of America,43.25091159,-71.7322996,376.53193756217786
hysets_01089000,"SOUCOOK RIVER NEAR CONCORD, NH",United States of America,43.2386922,-71.4620146,200.1336170118225
hysets_01089100,"SOUCOOK RIVER, AT PEMBROKE ROAD, NEAR CONCORD, NH",United States of America,43.21369248,-71.4803481,213.50819254470795
hysets_01089500,"SUNCOOK RIVER AT NORTH CHICHESTER, NH",United States of America,43.25674759,-71.36951248,399.1775977835949
hysets_01091000,"SOUTH BRANCH PISCATAQUOG RIVER NEAR GOFFSTOWN, NH",United States of America,43.01480519,-71.64146129,266.1408505538827
hysets_01093875,"SOUHEGAN RIVER (SITE WLR-5) NEAR MILFORD, NH",United States of America,42.846197,-71.6786836,303.237506409849
hysets_01094000,"SOUHEGAN RIVER AT MERRIMACK, NH",United States of America,42.8575865,-71.5061785,439.5875058987871
hysets_01095375,"QUINAPOXET RIVER AT CANADA MILLS NEAR HOLDEN, MA",United States of America,42.37286967,-71.8281279,115.00979346189747
hysets_01096000,"SQUANNACOOK RIVER NEAR WEST GROTON, MA",United States of America,42.63425619,-71.6578479,172.64293668107635
hysets_010965852,"BEAVER BROOK AT NORTH PELHAM, NH",United States of America,42.78286636,-71.35367448,122.42002526709408
hysets_01097380,"NASHOBA BROOK, COMMONWEALTH AVE AT W. CONCORD, MA",United States of America,42.45888889,-71.3972222,118.94283608322048
hysets_01100627,"SHAWSHEEN RIVER AT BALMORAL STREET AT ANDOVER, MA",United States of America,42.6714806,-71.1492239,172.59570450158165
hysets_01103280,"CHARLES RIVER AT MEDWAY, MA",United States of America,42.1398197,-71.3895032,168.55548832085296
hysets_01105554,"NEPONSET RIVER AT GREENLODGE ST NEAR CANTON, MA",United States of America,42.2092655,-71.1458851,220.3674294541396
hysets_01106500,"MATFIELD RIVER AT ELMWOOD, MA",United States of America,42.01537869,-70.96115378,104.21170931727936
hysets_01108000,"TAUNTON RIVER NEAR BRIDGEWATER, MA",United States of America,41.9339903,-70.9564307,676.1828795586039
hysets_01111050,"MUMFORD RIVER AT UXBRIDGE, MA",United States of America,42.07509705,-71.62478787,145.30857234890436
hysets_01111500,"BRANCH RIVER AT FORESTDALE, RI",United States of America,41.99648716,-71.5625632,236.36724948885816
hysets_01117430,"PAWCATUCK RIVER AT KENYON, RI",United States of America,41.44621186,-71.6211738,188.2619108216251
hysets_01117500,"PAWCATUCK RIVER AT WOOD RIVER JUNCTION, RI",United States of America,41.44510024,-71.68089828,260.0605927477719
hysets_01118000,"WOOD RIVER AT HOPE VALLEY, RI",United States of America,41.49815516,-71.7164561,192.5351714105113
hysets_01118010,"PAWCATUCK RIVER AT BURDICKVILLE, RI",United States of America,41.4162111,-71.7289551,533.3805744577829
hysets_01118500,"PAWCATUCK RIVER AT WESTERLY, RI",United States of America,41.38371065,-71.8331247,764.9361438384065
hysets_01119382,"WILLIMANTIC RIVER AT MERROW RD. NEAR MERROW, CT",United States of America,41.8240111,-72.3128472,250.5635459596654
hysets_01119384,"WILLIMANTIC RIVER NEAR MANSFIELD DEPOT, CT",United States of America,41.81555556,-72.3169444,255.04557433658903
hysets_01120790,"NATCHAUG RIVER AT MARCY RD. NEAR CHAPLIN, CT",United States of America,41.81616944,-72.1061694,183.87505471928927
hysets_01120800,NATCHAUG R AT CHAPLIN CT,United States of America,41.80093157,-72.118132,188.53193269185005
hysets_011230695,"SHETUCKET RIVER AT TAFTVILLE, CT",United States of America,41.57000278,-72.0462444,1328.164158892721
hysets_01133000,"EAST BRANCH PASSUMPSIC RIVER NEAR EAST HAVEN, VT",United States of America,44.63394195,-71.8975942,137.8397173034811
hysets_01134500,"MOOSE RIVER AT VICTORY, VT",United States of America,44.5117231,-71.8373143,195.14620831855632
hysets_01135000,"MOOSE RIVER AT ST. JOHNSBURY, VT",United States of America,44.42283589,-72.00009448,333.59522086021866
hysets_01135300,"SLEEPERS RIVER (SITE W-5) NEAR ST. JOHNSBURY, VT",United States of America,44.4353353,-72.03842899,109.79234472042236
hysets_01137500,"AMMONOOSUC RIVER AT BETHLEHEM JUNCTION, NH",United States of America,44.2686741,-71.6303617,228.02906641088128
hysets_01137940,"AMMONOOSUC RIVER BELOW LISBON DAM, AT LISBON, NH",United States of America,44.2125,-71.9141667,744.7259271403584
hysets_01144000,"WHITE RIVER AT WEST HARTFORD, VT",United States of America,43.71423614,-72.418149,1776.3501504727883
hysets_01153500,"WILLIAMS RIVER AT BROCKWAYS MILLS, VT",United States of America,43.20868736,-72.5175895,262.52387973746835
hysets_01153550,WILLIAMS RIVER NEAR ROCKINGHAM VT,United States of America,43.1917433,-72.48508889,288.7542854241879
hysets_01154000,"SAXTONS RIVER AT SAXTONS RIVER, VT",United States of America,43.13757777,-72.4881444,186.98162724646804
hysets_01154950,"COLD RIVER AT HIGH STREET, AT ALSTEAD, NH",United States of America,43.14944444,-72.3616667,192.49092352258808
hysets_01169000,"NORTH RIVER AT SHATTUCKVILLE, MA",United States of America,42.63841775,-72.7250922,230.72259338143263
hysets_01170100,"GREEN RIVER NEAR COLRAIN, MA",United States of America,42.70341695,-72.67064738,106.19650531134488
hysets_01171500,"MILL RIVER AT NORTHAMPTON, MA",United States of America,42.31897839,-72.6650907,129.78762999611445
hysets_01174500,"EAST BRANCH SWIFT RIVER NEAR HARDWICK, MA",United States of America,42.3934237,-72.2386926,112.7990012522302
hysets_01176000,"QUABOAG RIVER AT WEST BRIMFIELD, MA",United States of America,42.18231566,-72.263691,386.6312221624533
hysets_01181000,"WEST BRANCH WESTFIELD RIVER AT HUNTINGTON, MA",United States of America,42.23731169,-72.895654,242.77415807790263
hysets_01189000,"PEQUABUCK R AT FORESTVILLE, CT.",United States of America,41.673154,-72.90065738,117.74103460814416
hysets_01192704,MATTABESSET RIVER AT ROUTE 372 AT EAST BERLIN,United States of America,41.6081545,-72.7150953,119.7107775274555
hysets_01193500,"SALMON RIVER NEAR EAST HAMPTON, CT",United States of America,41.55232124,-72.44925287,262.8516987343405
hysets_01196500,"QUINNIPIAC RIVER AT WALLINGFORD, CT",United States of America,41.45026389,-72.841275,287.2995382052193
hysets_01198000,"GREEN RIVER NEAR GREAT BARRINGTON, MA",United States of America,42.1929083,-73.3912306,131.69815989519515
hysets_01198125,"HOUSATONIC RIVER NEAR ASHLEY FALLS, MA",United States of America,42.0748138,-73.33344858,1209.3596330543298
hysets_01198200,"KONKAPOT RIVER AT ASHLEY FALLS, MA",United States of America,42.0531476,-73.32594909,158.12987148559432
hysets_01200000,"TENMILE RIVER NEAR GAYLORDSVILLE, CT",United States of America,41.65876389,-73.5286833,528.3207690958994
hysets_01201487,"STILL RIVER AT ROUTE 7 AT BROOKFIELD CENTER, CT",United States of America,41.4658222,-73.40320278,155.03325040544604
hysets_01203000,"SHEPAUG R NR ROXBURY, CT",United States of America,41.54981744,-73.32984029,341.9370146969891
hysets_01204000,"POMPERAUG RIVER AT SOUTHBURY, CT",United States of America,41.48193889,-73.2245722,195.0603964122166
hysets_01312000,HUDSON RIVER NEAR NEWCOMB NY,United States of America,43.96666667,-74.1316667,496.6293577647604
hysets_01315081,INDIAN RIVER BLW LAKE ABANAKEE NR INDIAN LAKE NY,United States of America,43.7987222,-74.22952778,504.1234622590959
hysets_01321000,SACANDAGA RIVER NEAR HOPE NY,United States of America,43.35277778,-74.27027778,1260.7821886860086
hysets_01329000,"BATTEN KILL AT ARLINGTON, VT",United States of America,43.07618845,-73.15677339,388.4653454802794
hysets_01329490,BATTEN KILL BELOW MILL AT BATTENVILLE NY,United States of America,43.1086111,-73.4216667,1024.269052930762
hysets_01329500,BATTEN KILL AT BATTENVILLE NY,United States of America,43.10146518,-73.4315014,1026.310475968778
hysets_01330500,KAYADEROSSERAS CREEK NR WEST MILTON NY,United States of America,43.0383333,-73.9091667,218.65558361224305
hysets_01332000,"NORTH BRANCH HOOSIC RIVER AT NORTH ADAMS, MA",United States of America,42.7023041,-73.09315878,106.071701960132
hysets_01333000,"GREEN RIVER AT WILLIAMSTOWN, MA",United States of America,42.7089695,-73.1967729,110.36701802427528
hysets_01333500,LITTLE HOOSIC RIVER AT PETERSBURG NY,United States of America,42.76388889,-73.3372222,143.91032774297267
hysets_01334000,"WALLOOMSAC RIVER NEAR NORTH BENNINGTON, VT",United States of America,42.91285604,-73.2564981,298.4879962436907
hysets_01334500,HOOSIC RIVER NEAR EAGLE BRIDGE NY,United States of America,42.9386111,-73.3769444,1322.4487847816035
hysets_01343060,WEST CANADA CREEK NEAR WILMURT NY,United States of America,43.3661111,-74.95777778,608.163355263602
hysets_01348000,EAST CANADA CREEK AT EAST CREEK NY,United States of America,43.01666667,-74.7408333,755.1027678888834
hysets_01349000,OTSQUAGO CREEK AT FORT PLAIN NY,United States of America,42.92925,-74.63288889,156.0925267386193
hysets_01349150,CANAJOHARIE CREEK NEAR CANAJOHARIE NY,United States of America,42.8761111,-74.6030556,150.96424143597525
hysets_01349705,SCHOHARIE CREEK NEAR LEXINGTON NY,United States of America,42.23694444,-74.34027778,248.5290323266169
hysets_01350000,SCHOHARIE CREEK AT PRATTSVILLE NY,United States of America,42.31944444,-74.4366667,611.0726066328131
hysets_01350200,WEST KILL AT NORTH BLENHEIM NY,United States of America,42.4686111,-74.4591667,119.59906671496522
hysets_01361000,KINDERHOOK CREEK AT ROSSMAN NY,United States of America,42.33055556,-73.74388889,843.1588832008804
hysets_01361200,CLAVERACK CREEK AT CLAVERACK NY,United States of America,42.21625,-73.73027778,156.20075612252592
hysets_01362198,ESOPUS CREEK AT SHANDAKEN NY,United States of America,42.11647855,-74.38848279,153.73556179959263
hysets_01362200,ESOPUS CREEK AT ALLABEN NY,United States of America,42.11694444,-74.38027778,164.9366413637301
hysets_01371000,SHAWANGUNK KILL AT PINE BUSH NY,United States of America,41.61888889,-74.2933333,265.47255058914897
hysets_01371500,WALLKILL RIVER AT GARDINER NY,United States of America,41.6861111,-74.16527778,1832.5751035736005
hysets_01372500,WAPPINGER CREEK NEAR WAPPINGERS FALLS NY,United States of America,41.65305556,-73.8725,467.2392527647799
hysets_0137449480,EAST BRANCH CROTON RIVER NEAR PUTNAM LAKE NY,United States of America,41.44725,-73.5560833,156.19005331329805
hysets_01374531,EAST BRANCH CROTON RIVER NEAR CROTON FALLS NY,United States of America,41.37377778,-73.63875,231.5326630311458
hysets_01379000,Passaic River near Millington NJ,United States of America,40.68,-74.52888889,140.2235086520061
hysets_01379500,Passaic River near Chatham NJ,United States of America,40.7261111,-74.3897222,255.778701534199
hysets_01381800,Whippany River near Pine Brook NJ,United States of America,40.845,-74.3472222,179.3698141757394
hysets_01381900,Passaic River at Pine Brook NJ,United States of America,40.8625,-74.3216667,907.2294852147064
hysets_01387250,RAMAPO RIVER AT SLOATSBURG NY,United States of America,41.16805556,-74.1905556,161.80101750411498
hysets_01387500,Ramapo River near Mahwah NJ,United States of America,41.09805556,-74.16277778,318.3733409546562
hysets_01387890,Ramapo River downstream of Pond Bk at Oakland NJ,United States of America,41.02694444,-74.2508333,396.15781197729103
hysets_01391500,Saddle River at Lodi NJ,United States of America,40.89027778,-74.0805556,146.36448880751632
hysets_01395000,Rahway River at Rahway NJ,United States of America,40.61888889,-74.2833333,107.82009480947116
hysets_01396500,South Branch Raritan River near High Bridge NJ,United States of America,40.67777778,-74.8791667,171.39343843134228
hysets_01400000,North Branch Raritan River near Raritan NJ,United States of America,40.57055556,-74.6791667,481.26376684527605
hysets_01400500,Raritan River at Manville NJ,United States of America,40.55555556,-74.58277778,1269.479521821195
hysets_01400730,Millstone River at Plainsboro NJ,United States of America,40.32416667,-74.61388889,170.39341094253965
hysets_01401000,Stony Brook at Princeton NJ,United States of America,40.33305556,-74.6819444,116.09132675137386
hysets_01402000,Millstone River at Blackwells Mills NJ,United States of America,40.475,-74.5758333,669.8518165370632
hysets_01403900,Bound Brook at Middlesex NJ,United States of America,40.585,-74.50777778,124.55912764593808
hysets_01405030,Lawrence Brook at Westons Mills NJ,United States of America,40.48305556,-74.41277778,111.5841685981564
hysets_01405400,Manalapan Brook at Spotswood NJ,United States of America,40.38944444,-74.3905556,100.63324397260966
hysets_01405500,South River at Old Bridge NJ,United States of America,40.4061111,-74.3686111,244.921767315788
hysets_01408000,Manasquan River at Squankum NJ,United States of America,40.16138889,-74.1547222,113.4633559057888
hysets_01408029,Manasquan River near Allenwood NJ,United States of America,40.14666667,-74.1222222,163.8534370479834
hysets_01408500,Toms River near Toms River NJ,United States of America,39.98638889,-74.2233333,319.77485104175605
hysets_01409000,Cedar Creek at Lanoka Harbor NJ,United States of America,39.8675,-74.1691667,137.41177863380824
hysets_01409400,Mullica River near Batsto NJ,United States of America,39.67444444,-74.665,115.96736412568376
hysets_01409810,West Branch Wading River near Jenkins NJ,United States of America,39.68805556,-74.5480556,218.31931818360692
hysets_01411000,Great Egg Harbor River at Folsom NJ,United States of America,39.5947222,-74.8516667,146.84919238637846
hysets_01411485,Maurice River at Brotmanville NJ,United States of America,39.52194444,-75.0733333,228.0822156221693
hysets_01411500,Maurice River at Norma NJ,United States of America,39.49555556,-75.0769444,293.0675966926032
hysets_01411800,Maurice R near Millville NJ,United States of America,39.44777778,-75.0725,496.1355135543379
hysets_01413398,BUSH KILL NEAR ARKVILLE NY,United States of America,42.1508333,-74.60138889,120.62440700454836
hysets_01413408,DRY BROOK AT ARKVILLE,United States of America,42.14666667,-74.6233333,212.2806961277386
hysets_01413500,EAST BRANCH DELAWARE RIVER AT MARGARETVILLE NY,United States of America,42.1447222,-74.6536111,422.8840881248607
hysets_01420500,BEAVER KILL AT COOKS FALLS NY,United States of America,41.94638889,-74.9797222,625.7999509130223
hysets_01420980,E BR DELAWARE RIVER ABV READ CR AT FISHS EDDY NY,United States of America,41.9761983,-75.17072468,1979.7938203487704
hysets_01421900,WEST BRANCH DELAWARE RIVER UPSTREAM FROM DELHI NY,United States of America,42.28027778,-74.9072222,347.0946439110554
hysets_01422500,LITTLE DELAWARE RIVER NEAR DELHI NY,United States of America,42.2522222,-74.9016667,128.61341110227644
hysets_01423000,WEST BRANCH DELAWARE RIVER AT WALTON NY,United States of America,42.1661111,-75.14,858.353008864828
hysets_01427500,CALLICOON CREEK AT CALLICOON NY,United States of America,41.7608333,-75.0483333,286.3296714767725
hysets_01428750,"West Branch Lackawaxen River near Aldenville, PA",United States of America,41.67452998,-75.37601299,107.84942841627368
hysets_01432000,"Wallenpaupack Creek at Wilsonville, PA",United States of America,41.45925588,-75.1851748,591.5320771115319
hysets_01432900,MONGAUP RIVER AT MONGAUP VALLEY NY,United States of America,41.66805556,-74.7805556,198.67691520971704
hysets_01435000,NEVERSINK RIVER NEAR CLARYVILLE NY,United States of America,41.89,-74.59,171.755530031076
hysets_01439500,"Bush Kill at Shoemakers, PA",United States of America,41.08815078,-75.03767469,302.2814564966608
hysets_01440000,Flat Brook near Flatbrookville NJ,United States of America,41.1061111,-74.9525,168.18335357980948
hysets_01440400,"Brodhead Creek near Analomink, PA",United States of America,41.0848148,-75.2146251,177.73761779888596
hysets_01442500,"Brodhead Creek at Minisink Hills, PA",United States of America,40.998706,-75.1426788,676.4440466609963
hysets_01443500,Paulins Kill at Blairstown NJ,United States of America,40.9808333,-74.9533333,326.2705745591022
hysets_01445500,Pequest River at Pequest NJ,United States of America,40.83055556,-74.97777778,272.78937351046784
hysets_01447500,"Lehigh River at Stoddartsville, PA",United States of America,41.1303626,-75.625467,236.6735999170893
hysets_01449360,"Pohopoco Creek at Kresgeville, PA",United States of America,40.8975919,-75.5024077,128.76874609316567
hysets_01450020,"Pohopoco Creek at Mouth at Parryville, PA",United States of America,40.8181482,-75.6737996,285.43222114055567
hysets_01451420,"Little Lehigh Creek near East Texas, PA",United States of America,40.53870787,-75.5724085,126.5402062059603
hysets_01451500,"Little Lehigh Creek near Allentown, PA",United States of America,40.5823197,-75.48296088,211.5071480140093
hysets_01451650,Little Lehigh Creek at Tenth St. Br. at Allentown,United States of America,40.59648637,-75.4740717,253.62044257975015
hysets_01451800,"Jordan Creek near Schnecksville, PA",United States of America,40.66176219,-75.626854,135.56929398918024
hysets_01452000,"Jordan Creek at Allentown, PA",United States of America,40.62315267,-75.4824053,195.98052754711676
hysets_01452500,"Monocacy Creek at Bethlehem, PA",United States of America,40.6412091,-75.37934709,112.1507072165443
hysets_01464000,Assunpink Creek at Trenton NJ,United States of America,40.22416667,-74.7491667,232.8808702776124
hysets_01464500,Crosswicks Creek at Extonville NJ,United States of America,40.1372222,-74.6,200.4600509498361
hysets_01464750,"Neshaminy Creek near Rushland, PA",United States of America,40.26038549,-75.0348915,235.360400812415
hysets_01464984,"L Neshaminy Cr at Walton Road nr Jacksonville, PA",United States of America,40.2406635,-75.0537809,104.15919148825034
hysets_01465850,South Branch Rancocas Creek at Vincentown NJ,United States of America,39.94,-74.7630556,170.9782444913529
hysets_01467048,"Pennypack Cr at Lower Rhawn St Bdg, Phila., PA",United States of America,40.05011137,-75.0326713,129.1587376936001
hysets_01468500,"Schuylkill River at Landingville, PA",United States of America,40.6292577,-76.1246622,343.5139704627579
hysets_01470756,"Maiden Creek at Virginville, PA",United States of America,40.5142605,-75.8829816,409.41002227939583
hysets_01470779,"Tulpehocken Creek near Bernville, PA",United States of America,40.4134258,-76.1716128,181.14749945832057
hysets_01471875,"Manatawny Creek near Spangsville, PA",United States of America,40.339538,-75.7421359,148.04700261096772
hysets_01471900,"Manatawny Creek at Earlville, PA",United States of America,40.31814925,-75.7332463,159.98795598433682
hysets_01471980,"Manatawny Creek near Pottstown, PA",United States of America,40.2728729,-75.6799095,221.12967165195735
hysets_01472157,"French Creek near Phoenixville, PA",United States of America,40.15149064,-75.601305,152.067846480472
hysets_01472810,"East Branch Perkiomen Creek near Schwenksville, PA",United States of America,40.2587137,-75.4287873,151.72787834765975
hysets_01473120,"Skippack Creek near Collegeville, PA",United States of America,40.1645495,-75.433239,137.70473504918965
hysets_01473900,"Wissahickon Creek at Fort Washington, PA",United States of America,40.1239987,-75.2198992,104.63618681879908
hysets_01474000,"Wissahickon Creek at Mouth, Philadelphia, PA",United States of America,40.01539,-75.2068459,164.55176300954355
hysets_01477000,"Chester Creek near Chester, PA",United States of America,39.8690009,-75.4082494,156.59982503988104
hysets_01478040,"CHRISTINA RIVER NEAR BEAR, DE",United States of America,39.6367786,-75.68104188,107.0100190042003
hysets_01478245,"White Clay Creek near Strickersville, PA",United States of America,39.7475,-75.7708333,152.84382663525673
hysets_01478650,"WHITE CLAY CREEK AT NEWARK, DE",United States of America,39.6892222,-75.74875,177.0562701521154
hysets_01479000,"WHITE CLAY CREEK NEAR NEWARK, DE",United States of America,39.6992222,-75.67502778,230.5813504263588
hysets_01480000,"RED CLAY CREEK AT WOODDALE, DE",United States of America,39.76280556,-75.6365,122.4640398216142
hysets_01480015,"RED CLAY CREEK NEAR STANTON, DE",United States of America,39.71575,-75.6399444,135.6720402707321
hysets_01481500,"BRANDYWINE CREEK AT WILMINGTON, DE",United States of America,39.7695,-75.5766944,822.4819109216108
hysets_01485500,"NASSAWANGO CREEK NEAR SNOW HILL, MD",United States of America,38.22891667,-75.4714444,119.73428427527544
hysets_01487000,"NANTICOKE RIVER NEAR BRIDGEVILLE, DE",United States of America,38.7283333,-75.5618611,187.02421696074853
hysets_01488500,"MARSHYHOPE CREEK NEAR ADAMSVILLE, DE",United States of America,38.84969444,-75.6731111,122.53330729953576
hysets_01491000,"CHOPTANK RIVER NEAR GREENSBORO, MD",United States of America,38.99719444,-75.7858056,291.7532985197792
hysets_01491500,"TUCKAHOE CREEK NEAR RUTHSBURG, MD",United States of America,38.96680556,-75.9430556,222.47360750949625
hysets_01495000,"BIG ELK CREEK AT ELK MILLS, MD",United States of America,39.6675833,-75.8255833,137.56886847961957
hysets_01498620,SUSQUEHANNA RIVER SOUTHWEST OF ONEONTA NY,United States of America,42.44,-75.1,1761.278716273896
hysets_01502000,BUTTERNUT CREEK AT MORRIS NY,United States of America,42.54527778,-75.2391667,153.61053419810122
hysets_01502500,UNADILLA RIVER AT ROCKDALE NY,United States of America,42.37777778,-75.4061111,1343.8020980566646
hysets_01505000,CHENANGO RIVER AT SHERBURNE NY,United States of America,42.6786111,-75.5105556,659.988258903081
hysets_01505810,CHENANGO RIVER AT OXFORD NY,United States of America,42.44166667,-75.59638889,1176.5038458322897
hysets_01507000,CHENANGO RIVER AT GREENE NY,United States of America,42.32444444,-75.77138889,1524.6246087272127
hysets_01508803,WEST BR TIOUGHNIOGA RIVER AT HOMER NY,United States of America,42.6383333,-76.17638889,178.9947638589553
hysets_01509000,TIOUGHNIOGA RIVER AT CORTLAND NY,United States of America,42.60277778,-76.1594444,759.045015582533
hysets_01510000,OTSELIC RIVER AT CINCINNATUS NY,United States of America,42.5411111,-75.8997222,382.3908414098628
hysets_01514000,OWEGO CREEK NEAR OWEGO NY,United States of America,42.12916667,-76.2705556,480.0352747703226
hysets_01516350,"Tioga River near Mansfield, PA",United States of America,41.7970183,-77.0802457,394.7925476284687
hysets_01518862,"Cowanesque River at Westfield, PA",United States of America,41.92312576,-77.5319298,233.6354072300404
hysets_01525981,TUSCARORA CREEK ABOVE SOUTH ADDISON NY,United States of America,42.0722222,-77.29888889,261.4369246944162
hysets_01527500,COHOCTON RIVER AT AVOCA NY,United States of America,42.39777778,-77.4175,411.11931370924106
hysets_01528000,FIVEMILE CREEK NEAR KANONA NY,United States of America,42.3883333,-77.35777778,175.99311404017894
hysets_01532000,"Towanda Creek near Monroeton, PA",United States of America,41.7070195,-76.4846654,553.6788618064164
hysets_01534000,"Tunkhannock Creek near Tunkhannock, PA",United States of America,41.55841008,-75.89464168,1016.480104110653
hysets_01538000,"Wapwallopen Creek near Wapwallopen, PA",United States of America,41.0592504,-76.0935397,105.02146637917
hysets_01539000,"Fishing Creek near Bloomsburg, PA",United States of America,41.07814118,-76.4310555,703.605508444373
hysets_01541000,"West Branch Susquehanna River at Bower, PA",United States of America,40.89700655,-78.6769726,816.1907220046971
hysets_01542000,"Moshannon Creek at Osceola Mills, PA",United States of America,40.8495025,-78.2677928,178.07459554834466
hysets_01543000,"Driftwood Br Sinnemahoning Cr at Sterling Run, PA",United States of America,41.4133959,-78.1969524,703.9086327651994
hysets_01543500,"Sinnemahoning Creek at Sinnemahoning, PA",United States of America,41.31728467,-78.1030596,1777.4219868686887
hysets_01544500,"Kettle Creek at Cross Fork, PA",United States of America,41.4758994,-77.8258251,354.241557541841
hysets_01545600,"Young Womans Creek near Renovo, PA",United States of America,41.38951168,-77.6908191,118.90687312177874
hysets_01546400,"Spring Creek at Houserville, PA",United States of America,40.8336726,-77.82750108,156.41830308488073
hysets_01546500,"Spring Creek near Axemann, PA",United States of America,40.88978334,-77.794168,223.33285552360272
hysets_01547100,"Spring Creek at Milesburg, PA",United States of America,40.9317273,-77.7855575,376.6603109284233
hysets_01547200,"Bald Eagle Creek bl Spring Creek at Milesburg, PA",United States of America,40.943116,-77.78639109,692.7714769826791
hysets_01547700,"Marsh Creek at Blanchard, PA",United States of America,41.05950916,-77.6058264,114.06751497965064
hysets_01547950,"Beech Creek at Monument, PA",United States of America,41.1117307,-77.7022159,394.5436217330637
hysets_01548000,"Bald Eagle Creek at Beech Creek Station, PA",United States of America,41.06534338,-77.5672135,1444.315462583588
hysets_01548500,"Pine Creek at Cedar Run, PA",United States of America,41.52173586,-77.4474798,1556.1353809747454
hysets_01550000,"Lycoming Creek near Trout Run, PA",United States of America,41.41840957,-77.03274598,453.9783419891809
hysets_01552000,"Loyalsock Creek at Loyalsockville, PA",United States of America,41.32507836,-76.91246379,1127.8987406310168
hysets_01554500,"Shamokin Creek near Shamokin, PA",United States of America,40.81036345,-76.5841252,140.6979704146973
hysets_01555000,"Penns Creek at Penns Creek, PA",United States of America,40.86674917,-77.0483088,791.9796924304659
hysets_01555400,"East Mahantango Creek at Klingerstown, PA",United States of America,40.6634186,-76.69135408,115.36958439489592
hysets_01555500,"East Mahantango Creek near Dalmatia, PA",United States of America,40.61119589,-76.9119198,418.88340376325567
hysets_01556000,"Frankstown Br Juniata River at Williamsburg, PA",United States of America,40.4631283,-78.199732,748.2932918595618
hysets_01557500,"Bald Eagle Creek at Tyrone, PA",United States of America,40.6836733,-78.23362439,115.12306039989474
hysets_01558000,"Little Juniata River at Spruce Creek, PA",United States of America,40.61256655,-78.1405645,578.3922672196871
hysets_01558098,"Spruce Creek near Spruce Creek, PA",United States of America,40.6181219,-78.126953,273.923746954234
hysets_01560000,"Dunning Creek at Belden, PA",United States of America,40.07174679,-78.4925172,444.8265467215311
hysets_01562000,"Raystown Branch Juniata River at Saxton, PA",United States of America,40.21591249,-78.2652901,1951.3234899153365
hysets_01564997,"Kishacoquillas Creek at Lumber City, PA",United States of America,40.66173647,-77.5999947,147.9757873788785
hysets_01565000,"Kishacoquillas Creek at Reedsville, PA",United States of America,40.65479256,-77.5830499,421.1162706850169
hysets_01566000,"Tuscarora Creek near Port Royal, PA",United States of America,40.5153564,-77.41915568,542.8141655423857
hysets_01568000,"Sherman Creek at Shermans Dale, PA",United States of America,40.32341928,-77.1688703,534.5158645909756
hysets_01570000,"Conodoguinet Creek near Hogestown, PA",United States of America,40.2522222,-77.0211111,1205.25726184188
hysets_01571500,"Yellow Breeches Creek near Camp Hill, PA",United States of America,40.22481237,-76.8980293,557.2554232478426
hysets_01571820,"Swatara Creek at Ravine, PA",United States of America,40.58064485,-76.4046785,114.93326340183222
hysets_01571827,"Swatara Creek below Ravine, PA",United States of America,40.56314518,-76.397734,120.5835705989098
hysets_01571919,"Swatara Cr ab Hwy Bridge 895 at Pine Grove, PA",United States of America,40.54536785,-76.38051129,192.57054797183545
hysets_01572025,"Swatara Creek near Pine Grove, PA",United States of America,40.53258999,-76.4021793,301.2094594549054
hysets_01572030,"Swatara Creek near Suedberg, PA",United States of America,40.52481166,-76.4563488,323.0579800944804
hysets_01572190,"Swatara Creek near Inwood, PA",United States of America,40.4792558,-76.530797,433.1726015698516
hysets_01573000,"Swatara Creek at Harper Tavern, PA",United States of America,40.4025897,-76.57718829,870.5522884519625
hysets_01573560,"Swatara Creek near Hershey, PA",United States of America,40.29842358,-76.6677469,1252.7796772949887
hysets_01573825,"West Conewago Creek at East Berlin, PA",United States of America,39.9412222,-76.99,566.6314990035463
hysets_01574000,"West Conewago Creek near Manchester, PA",United States of America,40.08231745,-76.7199675,1324.4372352545165
hysets_01575585,"Codorus Creek at Pleasureville, PA",United States of America,40.0187082,-76.6930218,690.6878581137041
hysets_01576105,"Conestoga River near Terre Hill, PA",United States of America,40.14565158,-76.07772469,130.9017854914695
hysets_01576500,"Conestoga River at Lancaster, PA",United States of America,40.05009748,-76.2771798,835.6888370879252
hysets_01576540,"Mill Creek at Eshelman Mill Road near Lyndon, PA",United States of America,40.0100985,-76.2771806,140.28516904158246
hysets_01576754,"Conestoga River at Conestoga, PA",United States of America,39.9464886,-76.3677388,1212.9063146699907
hysets_01576787,"Pequea Creek at Martic Forge, PA",United States of America,39.90593409,-76.32829298,387.8727850598801
hysets_01577500,"Muddy Creek at Castle Fin, PA",United States of America,39.77260378,-76.3157919,343.7501014616597
hysets_01580000,"DEER CREEK AT ROCKS, MD",United States of America,39.6299722,-76.4033056,244.0972078459082
hysets_01580520,"DEER CREEK NEAR DARLINGTON, MD",United States of America,39.61744444,-76.1918611,425.1602399491629
hysets_01582000,"LITTLE FALLS AT BLUE MOUNT, MD",United States of America,39.6040833,-76.6204722,138.98750186596666
hysets_01583500,"WESTERN RUN AT WESTERN RUN, MD",United States of America,39.51077778,-76.6765,155.71573386540933
hysets_01586000,"NORTH BRANCH PATAPSCO RIVER AT CEDARHURST, MD",United States of America,39.50366667,-76.8848611,144.11770267012895
hysets_01589352,"GWYNNS FALLS AT WASHINGTON BLVD AT BALTIMORE, MD",United States of America,39.2715,-76.6485556,158.88414692726283
hysets_01589478,"JONES FALLS AT MARYLAND AVE AT BALTIMORE, MD",United States of America,39.30930556,-76.6194167,145.03212565975633
hysets_01589480,"JONES FALLS NEAR MOUTH AT BALTIMORE, MD",United States of America,39.3034403,-76.6116339,147.8630647868333
hysets_01593710,"MIDDLE PATUXENT RIVER NEAR SIMPSONVILLE, MD",United States of America,39.19677349,-76.89941938,124.6454543460314
hysets_01594000,"LITTLE PATUXENT RIVER AT SAVAGE, MD",United States of America,39.13441667,-76.8161667,254.04659616784565
hysets_01594526,"WESTERN BRANCH AT UPPER MARLBORO, MD",United States of America,38.8142222,-76.7487222,232.7691906001885
hysets_01595000,"NORTH BRANCH POTOMAC RIVER AT STEYER, MD",United States of America,39.30188889,-79.30688889,189.94776072301383
hysets_01595300,"ABRAM CREEK AT OAKMONT, WV",United States of America,39.36676569,-79.17892449,106.8252208867595
hysets_01595500,"NORTH BRANCH POTOMAC RIVER AT KITZMILLER, MD",United States of America,39.39388889,-79.1816944,586.8108556011866
hysets_01596500,"SAVAGE RIVER NEAR BARTON, MD",United States of America,39.57005556,-79.1019444,125.60871527920796
hysets_01599000,"GEORGES CREEK AT FRANKLIN, MD",United States of America,39.49391667,-79.0446944,188.35428252951468
hysets_01601000,"Wills Creek below Hyndman, PA",United States of America,39.81202897,-78.7164072,377.4676842065182
hysets_01601500,"WILLS CREEK NEAR CUMBERLAND, MD",United States of America,39.6696111,-78.7880278,640.5934811637478
hysets_01605500,"SOUTH BRANCH POTOMAC RIVER AT FRANKLIN, WV",United States of America,38.63567247,-79.3378199,463.0607593554264
hysets_01606000,"N F SOUTH BRANCH POTOMAC RIVER AT CABINS, WV",United States of America,38.9845546,-79.2336508,804.7446709714615
hysets_01606500,"SOUTH BRANCH POTOMAC RIVER NEAR PETERSBURG, WV",United States of America,38.99122107,-79.17587059,1685.4392792903077
hysets_01609000,"TOWN CREEK NEAR OLDTOWN, MD",United States of America,39.5532222,-78.555,385.75705084738127
hysets_01610155,"SIDELING HILL CREEK NEAR BELLEGROVE, MD",United States of America,39.64952778,-78.34413889,265.49183207407924
hysets_01611500,"CACAPON RIVER NEAR GREAT CACAPON, WV",United States of America,39.5823158,-78.3097312,1746.1595317923577
hysets_01613095,"TONOLOWAY CREEK NEAR HANCOCK, MD",United States of America,39.7063611,-78.15275,300.25049617142776
hysets_01613525,"LICKING CREEK AT PECTONVILLE, MD",United States of America,39.67627778,-78.0425278,505.30956038080495
hysets_01614000,"BACK CREEK NEAR JONES SPRINGS, WV",United States of America,39.51204187,-78.0372224,606.3409346234323
hysets_01614500,"CONOCOCHEAGUE CREEK AT FAIRVIEW, MD",United States of America,39.71638889,-77.8247778,1297.7179804085968
hysets_01615000,"OPEQUON CREEK NEAR BERRYVILLE, VA",United States of America,39.1747222,-78.0783333,149.40916192844645
hysets_01616500,"OPEQUON CREEK NEAR MARTINSBURG, WV",United States of America,39.42371047,-77.9386084,703.9007446992166
hysets_01619000,"ANTIETAM CREEK NEAR WAYNESBORO, PA",United States of America,39.71625,-77.60663889,243.4121837623313
hysets_01619500,"ANTIETAM CREEK NEAR SHARPSBURG, MD",United States of America,39.44977778,-77.7301944,727.2616360311682
hysets_01622000,"NORTH RIVER NEAR BURKETOWN, VA",United States of America,38.3404051,-78.9136385,969.863980924637
hysets_01624300,"MIDDLE RIVER NEAR VERONA, VA",United States of America,38.2434628,-79.0353073,461.0422079872784
hysets_01624800,"CHRISTIANS CREEK NEAR FISHERSVILLE, VA",United States of America,38.1284667,-78.994471,186.95239641849085
hysets_01625000,"MIDDLE RIVER NEAR GROTTOES, VA",United States of America,38.26179616,-78.8619703,964.0961013343516
hysets_01626000,"SOUTH RIVER NEAR WAYNESBORO, VA",United States of America,38.0576362,-78.90807949,328.4447423436712
hysets_01626850,"SOUTH RIVER NEAR DOOMS, VA",United States of America,38.08874648,-78.8769683,383.53812597832535
hysets_01627500,"SOUTH RIVER AT HARRISTON, VA",United States of America,38.21874208,-78.8366915,548.2379326559051
hysets_01632000,"N F SHENANDOAH RIVER AT COOTES STORE, VA",United States of America,38.63706254,-78.852803,543.0531788552099
hysets_01632082,"LINVILLE CREEK AT BROADWAY, VA",United States of America,38.60678588,-78.803357,115.57494242897948
hysets_01632900,"SMITH CREEK NEAR NEW MARKET, VA",United States of America,38.69345016,-78.6427935,244.43483522776907
hysets_01633000,"N F SHENANDOAH RIVER AT MOUNT JACKSON, VA",United States of America,38.74567048,-78.6389042,1317.8591243744445
hysets_01634000,"N F SHENANDOAH RIVER NEAR STRASBURG, VA",United States of America,38.9767759,-78.3361152,1995.84902898923
hysets_01634500,"CEDAR CREEK NEAR WINCHESTER, VA",United States of America,39.0812176,-78.3294486,264.0544435672768
hysets_01635090,"CEDAR CREEK ABOVE HWY 11 NEAR MIDDLETOWN, VA",United States of America,39.00677495,-78.3163924,396.960421687873
hysets_01635500,"PASSAGE CREEK NEAR BUCKTON, VA",United States of America,38.95816564,-78.2666685,223.75771141946825
hysets_01636242,"CROOKED RUN BELOW HWY 340 AT RIVERTON, VA",United States of America,38.9551101,-78.1972225,120.59466722774076
hysets_01637500,"CATOCTIN CREEK NEAR MIDDLETOWN, MD",United States of America,39.42725,-77.5561667,173.59839188540803
hysets_01638480,"CATOCTIN CREEK AT TAYLORSTOWN, VA",United States of America,39.25510206,-77.5763778,231.6922632810636
hysets_01639000,"MONOCACY RIVER AT BRIDGEPORT, MD",United States of America,39.6788333,-77.2345,447.6463532753743
hysets_01639375,"TOMS CREEK AT EMMITSBURG, MD",United States of America,39.70370818,-77.344431,100.5065231975092
hysets_01639500,"BIG PIPE CREEK AT BRUCEVILLE, MD",United States of America,39.6123611,-77.2374444,264.78187683786655
hysets_01642190,"MONOCACY RIVER AT MONOCACY BLVD AT FREDERICK, MD",United States of America,39.4434352,-77.3824848,1818.1254870331452
hysets_01642438,"LINGANORE CREEK NEAR LIBERTYTOWN, MD",United States of America,39.441,-77.26963889,146.65255804526427
hysets_01643500,"BENNETT CREEK AT PARK MILLS, MD",United States of America,39.29413889,-77.4070833,162.68752847633732
hysets_01643700,"GOOSE CREEK NEAR MIDDLEBURG, VA",United States of America,38.98649818,-77.7966614,314.62790541532337
hysets_01643880,"BEAVERDAM CREEK AT RT 734 NEAR MOUNTVILLE, VA",United States of America,39.0377222,-77.72225,122.16892637115308
hysets_01644000,"GOOSE CREEK NEAR LEESBURG, VA",United States of America,39.01955309,-77.5774918,859.1229188596297
hysets_01644280,"BROAD RUN NEAR LEESBURG, VA",United States of America,39.04641667,-77.43238889,196.58795037476276
hysets_01644600,"GREAT SENECA CREEK NEAR QUINCE ORCHARD, MD",United States of America,39.1328611,-77.2681111,139.0517012763194
hysets_01645000,"SENECA CREEK AT DAWSONVILLE, MD",United States of America,39.1280833,-77.33577778,263.7292103410743
hysets_01646000,"DIFFICULT RUN NEAR GREAT FALLS, VA",United States of America,38.97594346,-77.24581439,149.16356856686684
hysets_01649500,"NORTHEAST BRANCH ANACOSTIA RIVER AT RIVERDALE, MD",United States of America,38.96025,-76.9259722,187.46897919168865
hysets_01651000,"NORTHWEST BR ANACOSTIA RIVER NR HYATTSVILLE, MD",United States of America,38.9523333,-76.9660556,127.7379219088766
hysets_01653600,"PISCATAWAY CREEK AT PISCATAWAY, MD",United States of America,38.70577778,-76.9661944,101.65756726359186
hysets_01656000,"CEDAR RUN NEAR CATLETT, VA",United States of America,38.63678689,-77.6249897,241.20215190210143
hysets_01656100,"CEDAR RUN NEAR ADEN, VA",United States of America,38.6162316,-77.5541545,401.3201550583299
hysets_01656120,"CEDAR RUN AT RT 646 NEAR ADEN, VA",United States of America,38.64150829,-77.5124873,451.2232913126635
hysets_01656500,"BROAD RUN AT BUCKLAND, VA",United States of America,38.7806713,-77.6724919,130.1198206168648
hysets_01656960,"CUB RUN NEAR BULL RUN, VA",United States of America,38.8212248,-77.46554448,128.5932940820062
hysets_01657020,"BULL RUN NEAR MANASSAS PARK, VA",United States of America,38.80344739,-77.44943289,381.5645799111985
hysets_01657415,"BULL RUN NEAR CLIFTON, VA",United States of America,38.76650359,-77.41415419,478.5252028220864
hysets_01658000,"MATTAWOMAN CREEK NEAR POMONKEY, MD",United States of America,38.59613889,-77.05602778,143.34389733209167
hysets_01660920,"ZEKIAH SWAMP RUN NEAR NEWTOWN, MD",United States of America,38.4905833,-76.9270833,207.8446582615629
hysets_01662000,"RAPPAHANNOCK RIVER NEAR WARRENTON, VA",United States of America,38.6848412,-77.9038838,505.1126090742037
hysets_01663500,"HAZEL RIVER AT RIXEYVILLE, VA",United States of America,38.59178867,-77.9649962,738.2995863453533
hysets_01665500,"RAPIDAN RIVER NEAR RUCKERSVILLE, VA",United States of America,38.28068606,-78.340007,296.58577998954325
hysets_01666500,"ROBINSON RIVER NEAR LOCUST DALE, VA",United States of America,38.32513047,-78.0955557,463.3580148619196
hysets_01667500,"RAPIDAN RIVER NEAR CULPEPER, VA",United States of America,38.35040774,-77.9749972,1208.4918430911491
hysets_01668500,"CAT POINT CREEK NEAR MONTROSS, VA",United States of America,38.03985476,-76.8269072,117.7378660533611
hysets_01669520,"DRAGON SWAMP AT MASCOT, VA",United States of America,37.6337529,-76.6963468,277.1221316498355
hysets_01670180,"PAMUNKEY CREEK AT LAHORE, VA",United States of America,38.19263476,-77.9688863,110.39718529396556
hysets_01671025,"NORTH ANNA RIVER ABOVE LITTLE RIVER NR DOSWELL, VA",United States of America,37.8256964,-77.4260929,1209.715406686794
hysets_01671100,"LITTLE RIVER NEAR DOSWELL, VA",United States of America,37.8726401,-77.5130392,277.2287968676325
hysets_01672500,"SOUTH ANNA RIVER NEAR ASHLAND, VA",United States of America,37.796809,-77.5488744,1022.4800980198934
hysets_01673800,"PO RIVER NEAR SPOTSYLVANIA, VA",United States of America,38.1715215,-77.5947095,200.75741628838452
hysets_01674000,"MATTAPONI RIVER NEAR BOWLING GREEN, VA",United States of America,38.061801,-77.3858142,664.6842731291895
hysets_01674500,"MATTAPONI RIVER NEAR BEULAHVILLE, VA",United States of America,37.88388889,-77.16527778,1554.49717294193
hysets_01AD003,ST. FRANCIS RIVER AT OUTLET OF GLASIER LAKE,Canada,47.20661,-68.95694,1354.829518558448
hysets_01AF007,GRANDE RIVIERE AT VIOLETTE BRIDGE,Canada,47.24697,-67.92128,327.5299638178108
hysets_01AF009,IROQUOIS RIVER AT MOULIN MORNEAULT,Canada,47.45783,-68.35683,183.5886207482484
hysets_01AH005,MAMOZEKEL RIVER NEAR CAMPBELL RIVER,Canada,47.25083,-67.14222,223.8778154867996
hysets_01AJ003,MEDUXNEKEAG RIVER NEAR BELLEVILLE,Canada,46.21622,-67.72794,1203.8052864117865
hysets_01AJ004,BIG PRESQUE ISLE STREAM AT TRACEY MILLS,Canada,46.43836,-67.73844,486.3368738755508
hysets_01AJ010,BECAGUIMEC STREAM AT COLDSTREAM,Canada,46.34089,-67.46511,342.64554800457034
hysets_01AJ011,COLD STREAM AT COLDSTREAM,Canada,46.34222,-67.46917,156.4014050787423
hysets_01AK001,SHOGOMOC STREAM NEAR TRANS CANADA HIGHWAY,Canada,45.94353,-67.32036,233.42605215760412
hysets_01AK007,NACKAWIC STREAM NEAR TEMPERANCE VALE,Canada,46.04878,-67.23961,245.69471991514828
hysets_01AL002,NASHWAAK RIVER AT DURHAM BRIDGE,Canada,46.12592,-66.61131,1451.8742636468814
hysets_01AL008,NASHWAAK RIVER AT STANLEY,Canada,46.28306,-66.7375,642.9690056636035
hysets_01AM001,NORTH BRANCH OROMOCTO RIVER AT TRACY,Canada,45.67378,-66.68289,563.4771494405029
hysets_01AN002,SALMON RIVER AT CASTAWAY,Canada,46.29072,-65.72275,1051.1499098266618
hysets_01AP002,CANAAN RIVER AT EAST CANAAN,Canada,46.07236,-65.36639,667.5282494935619
hysets_01AP004,KENNEBECASIS RIVER AT APOHAQUI,Canada,45.70139,-65.60169,1100.7850686015308
hysets_01AP006,NEREPIS RIVER NEAR FOWLERS CORNER,Canada,45.50344,-66.31897,290.13920635696536
hysets_01AQ001,LEPREAU RIVER AT LEPREAU,Canada,45.16978,-66.46828,230.03591477442475
hysets_01AQ008,PISKAHEGAN STREAM NEAR PLEASANT MOUNTAIN,Canada,45.41806,-66.88694,217.88180920726683
hysets_01BD004,MATAPEDIA (LAC) A VAL-BRILLANT,Canada,48.53389,-67.54556,421.591372592054
hysets_01BD008,MATAPEDIA (RIVIERE) PRES DE AMQUI,Canada,48.49167,-67.45,551.483539931058
hysets_01BF001,NOUVELLE (RIVIERE) AU PONT,Canada,48.15722,-66.34944,1148.1349224229675
hysets_01BF004,"NOUVELLE (RIVIERE) A 0,2 KM EN AMONT DU PONT-ROUTE 132 A NOUVELLE",Canada,48.1588,-66.3488,1148.1349224229675
hysets_01BG005,CASCAPEDIA (RIVIERE) EN AVAL DU RUISSEAU BERRY,Canada,48.62833,-66.16806,1657.3763752818045
hysets_01BG008,CASCAPEDIA (PETITE RIVIERE) A SAINT-EDGAR,Canada,48.23083,-65.735,1346.7513710413818
hysets_01BG009,BONAVENTURE (RIVIERE) EN AMONT DU RUISSEAU CREUX,Canada,48.18611,-65.55861,1914.72665270721
hysets_01BH007,GRANDE-RIVIERE OUEST (LA),Canada,48.47778,-64.52861,538.945671796107
hysets_01BH008,SAINT-JEAN (RIVIERE),Canada,48.77167,-64.52139,1091.5357346152853
hysets_01BH012,SAINT-JEAN (RIVIERE) EN AMONT DU PONT-ROUTE 132,Canada,48.76889,-64.515,1097.659559927076
hysets_01BJ001,TETAGOUCHE RIVER NEAR WEST BATHURST,Canada,47.65583,-65.69361,379.6303511432023
hysets_01BJ003,JACQUET RIVER NEAR DURHAM CENTRE,Canada,47.89381,-66.02522,499.40340810883725
hysets_01BJ010,MIDDLE RIVER NEAR BATHURST,Canada,47.60839,-65.72181,218.7633030410817
hysets_01BL001,BASS RIVER AT BASS RIVER,Canada,47.65,-65.57778,175.74595649344303
hysets_01BL002,RIVIERE CARAQUET AT BURNSVILLE,Canada,47.70561,-65.15539,175.47289779062655
hysets_01BL003,BIG TRACADIE RIVER AT MURCHY BRIDGE CROSSING,Canada,47.43578,-65.10606,368.9146371204124
hysets_01BO003,BARNABY RIVER BELOW SEMIWAGAN RIVER,Canada,46.88861,-65.59556,513.0516051251515
hysets_01BO004,BARTIBOG RIVER BELOW HIGHWAY NO. 8,Canada,47.19083,-65.3975,351.21380259736463
hysets_01BP001,LITTLE SOUTHWEST MIRAMICHI RIVER AT LYTTLETON,Canada,46.93597,-65.90739,1322.7874281400566
hysets_01BQ001,NORTHWEST MIRAMICHI RIVER AT TROUT BROOK,Canada,47.09475,-65.8365,970.0058482620964
hysets_01BS001,COAL BRANCH RIVER AT BEERSVILLE,Canada,46.44394,-65.06494,178.63221266095476
hysets_01BU002,PETITCODIAC RIVER NEAR PETITCODIAC,Canada,45.94639,-65.16819,409.80145946186826
hysets_01BV006,POINT WOLFE RIVER AT FUNDY NATIONAL PARK,Canada,45.55856,-65.01597,135.5616069552444
hysets_01DG006,SHUBENACADIE RIVER AT ENFIELD,Canada,44.93194,-63.53444,414.5957427577322
hysets_01DN004,WALLACE RIVER AT WENTWORTH CENTRE,Canada,45.67833,-63.55972,296.7900824711758
hysets_01DO001,RIVER JOHN AT WELSFORD,Canada,45.72833,-63.0525,247.4763253844166
hysets_01DR001,SOUTH RIVER AT ST. ANDREWS,Canada,45.55972,-61.90364,180.7440021822931
hysets_01EC001,ROSEWAY RIVER AT LOWER OHIO,Canada,43.83736,-65.36911,495.8658087209256
hysets_01ED005,MERSEY RIVER BELOW GEORGE LAKE,Canada,44.33314,-65.20508,719.7221113633235
hysets_01ED007,MERSEY RIVER BELOW MILL FALLS,Canada,44.43678,-65.22186,286.83188731897513
hysets_01ED013,SHELBURNE RIVER AT POLLARD'S FALLS BRIDGE,Canada,44.21542,-65.24142,275.1334390842538
hysets_01EF001,LAHAVE RIVER AT WEST NORTHFIELD,Canada,44.44744,-64.59119,1248.3608413926468
hysets_01EG002,GOLD RIVER AT MOSHER'S FALLS,Canada,44.56444,-64.35167,367.84806189524
hysets_01EJ001,SACKVILLE RIVER AT BEDFORD,Canada,44.73153,-63.66044,148.70750357948907
hysets_01EN002,LISCOMB RIVER AT LISCOMB MILLS,Canada,45.015,-62.09583,376.8768484280343
hysets_01EO001,ST. MARYS RIVER AT STILLWATER,Canada,45.17439,-61.97992,1338.417957506227
hysets_01FA001,RIVER INHABITANTS AT GLENORA,Canada,45.72025,-61.28611,193.53769829326083
hysets_01FB001,NORTHEAST MARGAREE RIVER AT MARGAREE VALLEY,Canada,46.36897,-60.97528,365.0677914056234
hysets_01FB003,SOUTHWEST MARGAREE RIVER NEAR UPPER MARGAREE,Canada,46.22311,-61.13692,359.4114160824098
hysets_01FF001,MIDDLE RIVER AT MACLENNANS CROSS,Canada,46.19,-60.94181,120.84936396185071
hysets_02011400,"JACKSON RIVER NEAR BACOVA, VA",United States of America,38.04234707,-79.8814439,406.790576084476
hysets_02011460,"BACK CREEK NEAR SUNRISE, VA",United States of America,38.24540129,-79.76866328,156.01078252427178
hysets_02011480,"BACK CREEK ON ROUTE 600, NEAR MOUNTAIN GROVE, VA",United States of America,38.1348461,-79.8656107,229.6569079394981
hysets_02013000,"DUNLAP CREEK NEAR COVINGTON, VA",United States of America,37.8029022,-80.0470043,424.0688715752388
hysets_02014000,"POTTS CREEK NEAR COVINGTON, VA",United States of America,37.72901408,-80.0422802,397.0354802860361
hysets_02015700,"BULLPASTURE RIVER AT WILLIAMSVILLE, VA",United States of America,38.19540308,-79.57032338,285.67782021017933
hysets_02016000,"COWPASTURE RIVER NEAR CLIFTON FORGE, VA",United States of America,37.79179587,-79.7594917,1193.4543679149126
hysets_02017500,"JOHNS CREEK AT NEW CASTLE, VA",United States of America,37.5062397,-80.106715,275.9942298899062
hysets_02018000,"CRAIG CREEK AT PARR, VA",United States of America,37.66596174,-79.9114388,853.1838356655986
hysets_02020500,"CALFPASTURE RIVER ABOVE MILL CREEK AT GOSHEN, VA",United States of America,37.98790619,-79.49365288,365.1409477345622
hysets_02021500,"MAURY RIVER AT ROCKBRIDGE BATHS, VA",United States of America,37.90735266,-79.42198289,850.9188360960283
hysets_02024000,"MAURY RIVER NEAR BUENA VISTA, VA",United States of America,37.76263275,-79.3914251,1673.938117265922
hysets_02027000,"TYE RIVER NEAR LOVINGSTON, VA",United States of America,37.71541868,-78.981691,240.8335100358692
hysets_02027500,"PINEY RIVER AT PINEY RIVER, VA",United States of America,37.7023625,-79.0275254,123.41256846018015
hysets_02027800,"BUFFALO RIVER NEAR TYE RIVER, VA",United States of America,37.6056977,-78.9233543,377.5974389503782
hysets_02028500,"ROCKFISH RIVER NEAR GREENFIELD, VA",United States of America,37.86958499,-78.8233543,245.1893299687773
hysets_02030000,"HARDWARE RIVER BL BRIERY RUN NR SCOTTSVILLE, VA",United States of America,37.81264259,-78.4552862,300.29261018634264
hysets_02030500,"SLATE RIVER NEAR ARVONIA, VA",United States of America,37.70292198,-78.37750429,585.9179632563297
hysets_02031000,"MECHUMS RIVER NEAR WHITE HALL, VA",United States of America,38.10263608,-78.5927935,245.64067387033657
hysets_02032250,"MOORMANS RIVER NEAR FREE UNION, VA",United States of America,38.1406902,-78.5558478,199.2107990079404
hysets_02032640,"N F RIVANNA RIVER NEAR EARLYSVILLE, VA",United States of America,38.1634674,-78.4247323,279.2015091378576
hysets_02032680,"N F RIVANNA RIVER NEAR PROFFIT, VA",United States of America,38.0879147,-78.4119541,451.985252984604
hysets_02034000,"RIVANNA RIVER AT PALMYRA, VA",United States of America,37.8579192,-78.2658373,1716.0778470832463
hysets_02034500,"WILLIS RIVER AT LAKESIDE VILLAGE, VA",United States of America,37.6668125,-78.1663887,681.3804875047742
hysets_02039000,"BUFFALO CREEK NEAR HAMPDEN SYDNEY, VA",United States of America,37.25709664,-78.4863841,180.67818961710157
hysets_02039500,"APPOMATTOX RIVER AT FARMVILLE, VA",United States of America,37.3070965,-78.388607,784.4650664352408
hysets_02040000,"APPOMATTOX RIVER AT MATTOAX, VA",United States of America,37.42153845,-77.8588876,1876.7439705147733
hysets_02041000,"DEEP CREEK NEAR MANNBORO, VA",United States of America,37.28320595,-77.869722,410.2434340540882
hysets_02042287,"CHICKAHOMINY RIVER NEAR ATLEE, VA",United States of America,37.64181134,-77.4216489,161.336422081089
hysets_02042500,"CHICKAHOMINY RIVER NEAR PROVIDENCE FORGE, VA",United States of America,37.43625765,-77.0608027,651.0888667672157
hysets_02044000,"NOTTOWAY RIVER NEAR BURKEVILLE, VA",United States of America,37.07793014,-78.1969424,100.08382103079964
hysets_02044500,"NOTTOWAY RIVER NEAR RAWLINGS, VA",United States of America,36.9834822,-77.7997188,819.1272107160606
hysets_02045500,"NOTTOWAY RIVER NEAR STONY CREEK, VA",United States of America,36.90014978,-77.3996996,1496.6987208100006
hysets_02046000,"STONY CREEK NEAR DINWIDDIE, VA",United States of America,37.0670942,-77.602489,289.9199119734737
hysets_02047100,"ASSAMOOSICK SWAMP NEAR SEBRELL, VA",United States of America,36.7729277,-77.09885369,223.56310817619067
hysets_02047500,"BLACKWATER RIVER NEAR DENDRON, VA",United States of America,37.0251499,-76.8746824,750.5607563272453
hysets_02048000,"BLACKWATER RIVER AT ZUNI, VA",United States of America,36.8682054,-76.83495948,1150.702749471242
hysets_02049500,"BLACKWATER RIVER NEAR FRANKLIN, VA",United States of America,36.7626499,-76.89829369,1586.1479953837277
hysets_02051000,"NORTH MEHERRIN RIVER NEAR LUNENBURG, VA",United States of America,36.9973738,-78.3497182,144.9268991163663
hysets_02051500,"MEHERRIN RIVER NEAR LAWRENCEVILLE, VA",United States of America,36.71681395,-77.8316582,1430.6237154296591
hysets_02052000,"MEHERRIN RIVER AT EMPORIA, VA",United States of America,36.69014954,-77.5405364,1929.1496910628423
hysets_02052500,"FOUNTAINS CREEK NEAR BRINK, VA",United States of America,36.6154269,-77.699707,179.4708847214955
hysets_02053200,"POTECASI CREEK NEAR UNION, NC",United States of America,36.3708333,-77.0255556,578.7398232034413
hysets_02053500,"AHOSKIE CREEK AT AHOSKIE, NC",United States of America,36.28027778,-76.9994444,165.69338548391087
hysets_02053800,"S F ROANOKE RIVER NEAR SHAWSVILLE, VA",United States of America,37.1401323,-80.2664328,284.9164027742669
hysets_02054500,"ROANOKE RIVER AT LAFAYETTE, VA",United States of America,37.23652179,-80.2092089,660.602842450508
hysets_02054510,"ROANOKE RIVER NEAR WABUN, VA",United States of America,37.24680039,-80.1650413,700.4165377308578
hysets_02054530,"ROANOKE RIVER AT GLENVAR, VA",United States of America,37.26791157,-80.1394858,730.105852260457
hysets_02055000,"ROANOKE RIVER AT ROANOKE, VA",United States of America,37.25847085,-79.9386485,996.1362724426882
hysets_02056000,"ROANOKE RIVER AT NIAGARA, VA",United States of America,37.2551384,-79.87142539,1321.9888293221056
hysets_02056650,"BACK CREEK NEAR DUNDEE, VA",United States of America,37.22763879,-79.8680915,144.37312087042932
hysets_02056900,"BLACKWATER RIVER NEAR ROCKY MOUNT, VA",United States of America,37.0451406,-79.8441993,297.7388644312768
hysets_02058400,"PIGG RIVER NEAR SANDY LEVEL, VA",United States of America,36.9459767,-79.5247508,910.9190275177814
hysets_02059485,"GOOSE CREEK AT RT 747 NEAR BUNKER HILL, VA",United States of America,37.26638889,-79.5877778,322.6826706883013
hysets_02059500,"GOOSE CREEK NEAR HUDDLESTON, VA",United States of America,37.1731995,-79.5203076,485.0426622555415
hysets_02061000,"BIG OTTER RIVER NEAR BEDFORD, VA",United States of America,37.36403026,-79.41919689,295.510395998207
hysets_02061500,"BIG OTTER RIVER NEAR EVINGTON, VA",United States of America,37.20847738,-79.3036357,816.0534064474468
hysets_02064000,"FALLING RIVER NEAR NARUNA, VA",United States of America,37.12680956,-78.9597374,427.55139298437416
hysets_02065500,"CUB CREEK AT PHENIX, VA",United States of America,37.0793112,-78.7636178,252.80702389553997
hysets_02069000,"DAN RIVER AT PINE HALL, NC",United States of America,36.31930349,-80.0500424,1279.6503632107012
hysets_02069700,"SOUTH MAYO RIVER NEAR NETTLERIDGE, VA",United States of America,36.570971,-80.1294928,220.9793728081625
hysets_02070000,"NORTH MAYO RIVER NEAR SPENCER, VA",United States of America,36.56819358,-79.98726539,278.2735994007651
hysets_02070500,"MAYO RIVER NEAR PRICE, NC",United States of America,36.53388889,-79.99138889,671.2766992330055
hysets_02074500,"SANDY RIVER NEAR DANVILLE, VA",United States of America,36.6195825,-79.5041932,288.3158052861566
hysets_02077000,"BANISTER RIVER AT HALIFAX, VA",United States of America,36.7765267,-78.9158438,1414.672651544936
hysets_02077200,"HYCO CREEK NEAR LEASBURG, NC",United States of America,36.39777778,-79.1966667,121.19887733904072
hysets_02079640,"ALLEN CREEK NEAR BOYDTON, VA",United States of America,36.67958589,-78.326664,138.7608093243828
hysets_0208111310,"CASHIE RIVER AT SR1257 NEAR WINDSOR, NC",United States of America,36.04777778,-76.9841667,288.2641868630483
hysets_02081500,"TAR RIVER NEAR TAR RIVER, NC",United States of America,36.19416667,-78.5830556,431.2310797655852
hysets_02081747,"TAR R AT US 401 AT LOUISBURG, NC",United States of America,36.09305556,-78.2961111,1126.2882233111482
hysets_02082770,"SWIFT CREEK AT HILLIARDSTON, NC",United States of America,36.1122222,-77.92,428.90326509308073
hysets_02082950,"LITTLE FISHING CREEK NEAR WHITE OAK, NC",United States of America,36.1833333,-77.8761111,461.1571666808319
hysets_02083000,"FISHING CREEK NEAR ENFIELD, NC",United States of America,36.15055556,-77.6930556,1370.7768734395936
hysets_0208378372,"CONETOE CREEK AT CONETOE, NC",United States of America,35.80849147,-77.4463578,150.4462631000733
hysets_02083800,"CONETOE CREEK NEAR BETHEL, NC",United States of America,35.77599167,-77.4621915,186.87336411653524
hysets_02084160,"CHICOD CR AT SR1760 NEAR SIMPSON, NC",United States of America,35.56166667,-77.2308333,111.09463811658536
hysets_02085070,"ENO RIVER NEAR DURHAM, NC",United States of America,36.0722222,-78.9077778,368.0996137904528
hysets_0208521324,"LITTLE RIVER AT SR1461 NEAR ORANGE FACTORY, NC",United States of America,36.14166667,-78.9191667,202.6535833821925
hysets_02085220,"LITTLE RIVER NEAR ORANGE FACTORY, NC",United States of America,36.1390316,-78.90639669,207.98232941542025
hysets_02085500,"FLAT RIVER AT BAHAMA, NC",United States of America,36.18277778,-78.87888889,385.4331621320896
hysets_0208726005,"CRABTREE CR AT EBENEZER CHURCH RD NR RALEIGH, NC",United States of America,35.84527778,-78.7244444,198.29117073541823
hysets_02087275,"CRABTREE CREEK AT HWY 70 AT RALEIGH, NC",United States of America,35.83805556,-78.6741667,253.2042001980966
hysets_02087324,"CRABTREE CREEK AT US 1 AT RALEIGH, NC",United States of America,35.8111111,-78.6108333,314.8139198459205
hysets_02088000,"MIDDLE CREEK NEAR CLAYTON, NC",United States of America,35.5708333,-78.5905556,215.7977318988046
hysets_02088383,"LITTLE RIVER NEAR ZEBULON, NC",United States of America,35.82194444,-78.3522222,145.46397314464076
hysets_02088470,"LITTLE RIVER NEAR KENLY, NC",United States of America,35.5890479,-78.18805089,489.5449843049941
hysets_02088500,"LITTLE RIVER NEAR PRINCETON, NC",United States of America,35.51138889,-78.1602778,594.7817802731015
hysets_0208925200,"BEAR CREEK AT MAYS STORE, NC",United States of America,35.2747222,-77.7944444,153.0236800735045
hysets_02091000,"NAHUNTA SWAMP NEAR SHINE, NC",United States of America,35.48888889,-77.8061111,207.22878105085945
hysets_02091700,"LITTLE CONTENTNEA CREEK NEAR FARMVILLE, NC",United States of America,35.54460599,-77.5110797,248.01770045035937
hysets_02091736,"MIDDLE SWAMP NEAR FARMVILLE, NC",United States of America,35.53277778,-77.54527778,133.41697458398428
hysets_02091737,"LITTLE CONTENTNEA CREEK NR WILLOW GREEN, NC",United States of America,35.52516178,-77.5205243,397.112575656301
hysets_02092000,"SWIFT CREEK NEAR VANCEBORO, NC",United States of America,35.34516225,-77.1955108,478.11948241527153
hysets_02092500,"TRENT RIVER NEAR TRENTON, NC",United States of America,35.06416667,-77.46138889,434.5238589670743
hysets_02094412,"REEDY FORK NR BROWNS SUMMIT, NC",United States of America,36.17957949,-79.64725,330.4911284350821
hysets_0209509100,"S BUFFALO CREEK AT SR2821 AT MCLEANSVILLE, NC",United States of America,36.11263524,-79.6716943,112.2644314426224
hysets_0209560800,"REEDY FORK CREEK AT NC 61 NR OSCEOLA, NC",United States of America,36.17902388,-79.57641469,626.8270196673733
hysets_02096500,"HAW RIVER AT HAW RIVER, NC",United States of America,36.0872222,-79.3661111,1561.3835774219426
hysets_02097314,"NEW HOPE CREEK NEAR BLANDS, NC",United States of America,35.885,-78.9652778,196.9059949183109
hysets_02100500,"DEEP RIVER AT RAMSEUR, NC",United States of America,35.72638889,-79.6555556,920.3488664413528
hysets_02101726,"ROCKY R AT US 64 NEAR SILER CITY, NC",United States of America,35.73514055,-79.4230754,178.4911277193926
hysets_02103000,"LITTLE RIVER AT MANCHESTER, NC",United States of America,35.1933333,-78.9855556,894.884570753644
hysets_02104220,"ROCKFISH CREEK AT RAEFORD, NC",United States of America,34.9997222,-79.2147222,241.95347693934204
hysets_02106000,"LITTLE COHARIE CREEK NEAR ROSEBORO, NC",United States of America,34.9537808,-78.4877838,250.92753462062683
hysets_02106500,"BLACK RIVER NEAR TOMAHAWK, NC",United States of America,34.755,-78.2886111,1759.1861634210322
hysets_02108000,"NORTHEAST CAPE FEAR RIVER NEAR CHINQUAPIN, NC",United States of America,34.82888889,-77.8322222,1554.8935107355655
hysets_02109500,"WACCAMAW RIVER AT FREELAND, NC",United States of America,34.095,-78.5483333,1784.468967338895
hysets_02111180,"ELK CREEK AT ELKVILLE, NC",United States of America,36.07138889,-81.4030556,130.53948833221455
hysets_02111500,"REDDIES RIVER AT NORTH WILKESBORO, NC",United States of America,36.175,-81.16888889,233.516309363583
hysets_02112120,"ROARING RIVER NEAR ROARING RIVER, NC",United States of America,36.25027778,-81.0444444,329.86601002467216
hysets_02112360,"MITCHELL RIVER NEAR STATE ROAD, NC",United States of America,36.31138889,-80.8072222,205.2355972778092
hysets_02113000,"FISHER RIVER NEAR COPELAND, NC",United States of America,36.3411111,-80.6858333,328.6708049715852
hysets_02113850,"ARARAT RIVER AT ARARAT, NC",United States of America,36.40444444,-80.5616667,596.7038865129845
hysets_02114450,"LITTLE YADKIN RIVER AT DALTON, NC",United States of America,36.29916667,-80.4147222,110.50063937553712
hysets_02115856,"SALEM CREEK NR ATWOOD, NC",United States of America,36.03624827,-80.3094961,166.7041920093942
hysets_02115860,"MUDDY CREEK NEAR MUDDY CREEK, NC",United States of America,36.00027778,-80.3402778,472.1772186856044
hysets_02115900,"SOUTH FORK MUDDY CREEK NR CLEMMONS, NC",United States of America,36.00624815,-80.3017182,109.8869965349772
hysets_02118000,"SOUTH YADKIN RIVER NEAR MOCKSVILLE, NC",United States of America,35.845,-80.65888889,789.5075552581567
hysets_02118500,"HUNTING CREEK NEAR HARMONY, NC",United States of America,36.00055556,-80.7455556,400.34500361899006
hysets_02120780,"SECOND CREEK NEAR BARBER, NC",United States of America,35.7176083,-80.596075,304.4488256389152
hysets_0212433550,"ROCKY R AB IRISH BUFFALO CR NR ROCKY RIVER, NC",United States of America,35.32166667,-80.5408333,722.8844331311077
hysets_02124471,"DUTCH BUFFALO CR AT NC 49 NR MOUNT PLEASANT, NC",United States of America,35.4270854,-80.4108952,113.862681891879
hysets_02124742,"ROCKY RIVER NR STANFIELD, NC",United States of America,35.16944444,-80.4730556,1625.7207408297484
hysets_02125000,"BIG BEAR CR NR RICHFIELD, NC",United States of America,35.3347222,-80.3355556,144.18858864751883
hysets_0212501005,"BIG BEAR CR AT SR1214 NR BLOOMINGTON, NC",United States of America,35.3068099,-80.3186729,161.5756839347712
hysets_02125816,"LANE'S CR NR MARSHVILLE, NC",United States of America,34.9754319,-80.3036742,230.1558208120713
hysets_02128000,"LITTLE RIVER NEAR STAR, NC",United States of America,35.3872222,-79.83138889,273.112819717816
hysets_02130900,"BLACK CREEK NEAR MCBEE, SC",United States of America,34.51404244,-80.1831244,277.5003105320555
hysets_02130980,"BLACK CREEK NEAR QUINBY, SC",United States of America,34.24376518,-79.7447833,1138.6042470985697
hysets_02131110,"JEFFRIES CREEK ABOVE FLORENCE, SC",United States of America,34.17793336,-79.8092301,111.38007104357062
hysets_02131500,"LYNCHES RIVER NEAR BISHOPVILLE, SC",United States of America,34.2501545,-80.2136816,1720.1502188260438
hysets_02132320,"BIG SHOE HEEL CREEK NR LAURINBURG, NC",United States of America,34.75055556,-79.3866667,211.7508536979663
hysets_02133500,"DROWNING CREEK NEAR HOFFMAN, NC",United States of America,35.0611111,-79.49388889,472.2571459855331
hysets_02133624,"LUMBER RIVER NEAR MAXTON, NC",United States of America,34.77277778,-79.3319444,946.1527351158164
hysets_02134170,"LUMBER RIVER AT LUMBERTON, NC",United States of America,34.62027778,-79.0111111,1845.3385327962603
hysets_02134480,"BIG SWAMP NR TAR HEEL, NC",United States of America,34.71027778,-78.83638889,576.6740866545675
hysets_02135300,"SCAPE ORE SWAMP NEAR BISHOPVILLE, S. C.",United States of America,34.15071067,-80.30479729,244.7866109370284
hysets_02135517,"POCOTALIGO RIVER AT SUMTER, SC",United States of America,33.875714,-80.3517476,356.5104495212583
hysets_02137727,"CATAWBA R NR PLEASANT GARDENS, NC",United States of America,35.6858333,-82.0602778,329.5015624315522
hysets_02138500,"LINVILLE RIVER NEAR NEBO, NC",United States of America,35.7947222,-81.89,174.2081941350299
hysets_02140991,"JOHNS RIVER AT ARNEYS STORE, NC",United States of America,35.8336111,-81.7119444,521.6706873685309
hysets_02141245,"LOWER CREEK NR SR1501 NEAR MORGANTON, NC",United States of America,35.8254078,-81.6359306,214.68585425080528
hysets_02143000,"HENRY FORK NEAR HENRY RIVER, NC",United States of America,35.68444444,-81.4033333,216.32882804922255
hysets_02143500,"INDIAN CREEK NEAR LABORATORY, NC",United States of America,35.42055556,-81.2652778,180.34187776030612
hysets_02145000,"SOUTH FORK CATAWBA RIVER AT LOWELL, NC",United States of America,35.28527778,-81.1011111,1625.4883041387543
hysets_02145642,"CROWDERS CREEK (RD 1104) NEAR CLOVER, SC",United States of America,35.1373616,-81.13563159,229.8745993533805
hysets_02146381,"SUGAR CREEK AT NC 51 NEAR PINEVILLE, NC",United States of America,35.0908333,-80.8994444,166.97986677032569
hysets_02146507,"LITTLE SUGAR C AT ARCHDALE DR AT CHARLOTTE, NC",United States of America,35.14805556,-80.8577778,111.64551803209318
hysets_02146530,"LITTLE SUGAR CREEK AT PINEVILLE, NC",United States of America,35.08527778,-80.8822222,127.7033797616578
hysets_02146750,"MCALPINE CR BELOW MCMULLEN CR NR PINEVILLE, NC",United States of America,35.0664972,-80.86985,238.4298986347681
hysets_0214676115,"MCALPINE CREEK AT SR2964 NR CAMP COX, SC",United States of America,35.0408333,-80.8916667,250.19630411163612
hysets_02146800,"SUGAR CREEK NEAR FORT MILL, SC",United States of America,35.0059812,-80.9022968,679.8165503894762
hysets_02146820,"SUGAR CR. NR FT. MILL, S.C.",United States of America,34.9501476,-80.8703512,710.7061966441306
hysets_02146900,"TWELVE MILE CREEK NEAR WAXHAW, NC",United States of America,34.95194444,-80.7558333,195.5778065676302
hysets_02147240,BEAR CREEK AT LANCASTER S. C.,United States of America,34.71931386,-80.7970141,172.1422700607013
hysets_02147500,"ROCKY CREEK AT GREAT FALLS, SC",United States of America,34.5654221,-80.9198025,507.1459472623487
hysets_02148300,"COLONELS CREEK NEAR LEESBURG,S.C.",United States of America,34.00709738,-80.73258678,104.07611325700704
hysets_02149000,"COVE CREEK NEAR LAKE LURE, NC",United States of America,35.4233333,-82.1116667,203.54903625633452
hysets_02150495,"SECOND BROAD RIVER NR LOGAN, NC",United States of America,35.40444444,-81.8725,225.1716200848344
hysets_02151000,"SECOND BROAD RIVER AT CLIFFSIDE, NC",United States of America,35.23567858,-81.76565609,569.6760318230289
hysets_02152100,"FIRST BROAD RIVER NEAR CASAR, NC",United States of America,35.49305556,-81.6822222,155.95413552460246
hysets_02152285,"FIRST BROAD RIVER AT SR1512 NEAR LAWNDALE, NC",United States of America,35.4422222,-81.6130556,332.15834158107054
hysets_02152474,"FIRST BROAD RIVER AT LAWNDALE, NC",United States of America,35.41527778,-81.5616667,490.9517431239898
hysets_02153800,"BULLOCK CREEK NR SHARON, SC",United States of America,34.95374457,-81.38258499,218.0409235689099
hysets_02154790,"SOUTH PACOLET RIVER NR CAMPOBELLO, SC",United States of America,35.1065051,-82.1295549,143.54701709230233
hysets_02156300,LAWSONS FORK CREEK AT SPARTANBURG SC,United States of America,34.9481803,-81.8687141,192.8855271700226
hysets_021563931,"TURKEY CREEK NEAR LOWRYS, SC",United States of America,34.8131912,-81.3692576,212.1633658810113
hysets_02157000,"NORTH TYGER RIVER NEAR FAIRMONT, S. C.",United States of America,34.92928718,-82.0442725,113.64145763332164
hysets_02157510,"MIDDLE TYGER RIVER NEAR LYMAN, SC",United States of America,34.9401187,-82.1234421,179.0446813535426
hysets_02158408,"SOUTH TYGER RIVER BELOW DUNCAN, SC",United States of America,34.92095239,-82.130109,246.8769276004845
hysets_02160105,"TYGER RIVER NEAR DELTA, SC",United States of America,34.5354163,-81.548158,1959.0084074034448
hysets_02160390,"ENOREE RIVER NEAR WOODRUFF, SC",United States of America,34.68345815,-82.0398229,643.9567381784557
hysets_02160700,"ENOREE RIVER AT WHITMIRE, SC",United States of America,34.5093039,-81.5981594,1146.4151495124624
hysets_021607224,"INDIAN CREEK ABOVE NEWBERRY, SC",United States of America,34.4251378,-81.6048272,164.3650660042783
hysets_02162010,"CEDAR CREEK NEAR BLYTHEWOOD, SC",United States of America,34.19570529,-81.1034247,126.92556475890626
hysets_02162500,"SALUDA RIVER NEAR GREENVILLE, SC",United States of America,34.84233977,-82.4806814,765.8895363596577
hysets_02163500,"SALUDA RIVER NEAR WARE SHOALS, SC",United States of America,34.39178518,-82.22345068,1505.7138981888772
hysets_02164000,"REEDY RIVER NEAR GREENVILLE, SC",United States of America,34.8001183,-82.3651213,124.82228215189348
hysets_02164110,"REEDY RIVER ABOVE FORK SHOALS, SC",United States of America,34.65289568,-82.2976186,283.3617907548587
hysets_02165000,"REEDY RIVER NEAR WARE SHOALS, S. C.",United States of America,34.4173425,-82.15149998,610.567174608633
hysets_02167450,"LITTLE RIVER NR SILVERSTREET, SC",United States of America,34.20957949,-81.7631659,579.1046594671282
hysets_02167582,"BUSH RIVER NR PROSPERITY, SC",United States of America,34.1687501,-81.61038399,300.4671009740521
hysets_021677037,"LITTLE SALUDA RIVER AT SALUDA,SC",United States of America,34.00819068,-81.7414956,234.8816283895676
hysets_02169570,"GILLS CREEK AT COLUMBIA, SC",United States of America,33.98960016,-80.9742573,153.5380478441895
hysets_02169670,"CEDAR CREEK BELOW MYERS CREEK NR HOPKINS, SC",United States of America,33.83987664,-80.8603678,176.02787019878676
hysets_02173000,"SOUTH FORK EDISTO RIVER NEAR DENMARK, SC",United States of America,33.39320916,-81.1331559,1899.1890219456727
hysets_02173030,"SOUTH FORK EDISTO RIVER NEAR COPE, SC",United States of America,33.3590442,-81.0595425,1983.769009937472
hysets_02173212,"CEDAR CREEK NEAR THOR, SC",United States of America,33.69,-81.2541667,112.47062118378224
hysets_02173500,"NORTH FORK EDISTO RIVER AT ORANGEBURG, SC",United States of America,33.48348715,-80.87342578,1775.5769345351007
hysets_02175500,"SALKEHATCHIE RIVER NEAR MILEY, SC",United States of America,32.98904958,-81.0526044,880.6046272994041
hysets_02177000,"CHATTOOGA RIVER NEAR CLAYTON, GA",United States of America,34.8139814,-83.305993,526.5649623887899
hysets_02178400,"TALLULAH RIVER NEAR CLAYTON, GA",United States of America,34.89037075,-83.530441,151.54267146174857
hysets_02186000,"TWELVEMILE CREEK NEAR LIBERTY, SC",United States of America,34.8015012,-82.7484725,269.18867031261834
hysets_02186645,"CONEROSS CK NR SENECA, SC",United States of America,34.64926575,-82.9915382,169.10647529425765
hysets_02186699,"EIGHTEENMILE CREEK ABOVE PENDLETON, SC",United States of America,34.65899505,-82.7987523,120.8204531804701
hysets_02187910,"ROCKY RIVER NR STARR, SC",United States of America,34.38316394,-82.577352,287.6161100320203
hysets_02188680,"BEAVERDAM CREEK (CITY INTAKE) NR ELBERTON, GA",United States of America,34.1414995,-82.8540278,207.73952653444903
hysets_02191300,"BROAD RIVER ABOVE CARLTON, GA",United States of America,34.0733333,-83.0033333,1958.6340217183529
hysets_02191743,"SOUTH FORK BROAD RIVER AT CARLTON, GA",United States of America,34.03150107,-83.0090326,582.9107230928092
hysets_02192500,"LITTLE RIVER NEAR MT. CARMEL, SC",United States of America,34.07150595,-82.5006853,555.7335951305001
hysets_02193500,"LITTLE RIVER NEAR WASHINGTON, GA",United States of America,33.61277778,-82.7425,756.8150711404182
hysets_02195320,"KIOKEE CREEK AT GA 104, NEAR EVANS, GA",United States of America,33.60096698,-82.23262169,273.6401376614215
hysets_02196000,"STEVENS CREEK NEAR MODOC, SC",United States of America,33.72929717,-82.1817873,1408.4864220237453
hysets_02196690,"HORSE CREEK AT CLEARWATER, SC",United States of America,33.4781928,-81.90761399,387.2523325237895
hysets_02197310,"UPPER THREE RUNS ABOVE ROAD C (SRS), SC",United States of America,33.28570125,-81.6942783,495.6472992325047
hysets_02197315,"UPPER THREE RUNS AT ROAD A (SRS), SC",United States of America,33.2390359,-81.7448353,522.4558724315517
hysets_02197520,"BRIER CREEK NEAR THOMSON, GA",United States of America,33.36847394,-82.4681828,145.10586828449226
hysets_02197830,"BRIER CREEK NEAR WAYNESBORO, GA",United States of America,33.1182057,-81.9637281,1226.035443719578
hysets_02198000,"BRIER CREEK AT MILLHAVEN, GA",United States of America,32.93349199,-81.6512217,1671.773157724286
hysets_02198690,"EBENEZER CREEK AT SPRINGFIELD, GA",United States of America,32.36574688,-81.2973323,420.048489369914
hysets_02200120,"OGEECHEE RIVER AT GA 88, NEAR GRANGE, GA",United States of America,33.044596,-82.6037424,1169.0787711374044
hysets_02201000,"WILLIAMSON SWAMP CREEK AT DAVISBORO, GA",United States of America,32.97570924,-82.609854,285.4704191664764
hysets_02202600,"BLACK CREEK NEAR BLITCHTON, GA",United States of America,32.1679803,-81.48816698,590.9961632003394
hysets_02203000,"CANOOCHEE RIVER NEAR CLAXTON, GA",United States of America,32.18491397,-81.8887265,1451.829703271914
hysets_02203900,"SOUTH RIVER AT FLAKES MILL ROAD NR ATLANTA, GA",United States of America,33.66621924,-84.2246426,259.6176875033554
hysets_02204500,"SOUTH RIVER NEAR MCDONOUGH, GA",United States of America,33.49678074,-84.0146337,1168.076812553082
hysets_02204520,"SOUTH RIVER AT GA 81, AT SNAPPING SHOALS, GA",United States of America,33.48455976,-83.9579647,1207.0003980284491
hysets_02206500,"YELLOW RIVER NEAR SNELLVILLE, GA",United States of America,33.85316075,-84.0790803,353.6233349632752
hysets_02207120,"YELLOW RIVER AT GA 124, NEAR LITHONIA, GA",United States of America,33.7728852,-84.0582475,418.54723992202776
hysets_02207220,"YELLOW RIVER AT PLEASANT HILL ROAD, NR LITHONIA,GA",United States of America,33.73371945,-84.061859,560.4310102798753
hysets_02207335,"YELLOW RIVER AT GEES MILL ROAD, NEAR MILSTEAD, GA",United States of America,33.66694444,-83.9380556,663.2636297661204
hysets_02207448,"BIG HAYNES CREEK AT BALD ROCK ROAD, NR MILSTEAD GA",United States of America,33.66138889,-83.9277778,212.0007826887069
hysets_02207500,"YELLOW RIVER NEAR COVINGTON, GA",United States of America,33.61455778,-83.91490748,976.651858068393
hysets_02208000,"YELLOW RIVER ROCKY PLAINS RD NR ROCKY PLAINS, GA",United States of America,33.4998611,-83.8841667,1112.3580525740956
hysets_02208450,"ALCOVY RIVER ABOVE COVINGTON, GA",United States of America,33.64011554,-83.7790674,480.6354516177747
hysets_02209000,"ALCOVY RIVER BELOW COVINGTON, GA",United States of America,33.5059506,-83.8249037,639.6982692633235
hysets_02212600,"FALLING CREEK NEAR JULIETTE, GA",United States of America,33.0998535,-83.7235104,187.7101428233057
hysets_02215100,"TUCSAWHATCHEE CREEK NEAR HAWKINSVILLE, GA",United States of America,32.23944444,-83.5016667,424.5782604400096
hysets_02215900,"LITTLE OCMULGEE RIVER AT GA 149, AT SCOTLAND, GA",United States of America,32.0523988,-82.8156974,814.8267586105812
hysets_02216180,"TURNPIKE CREEK NEAR MCRAE, GA",United States of America,31.99138889,-82.9219444,128.01814284261567
hysets_02217475,"MIDDLE OCONEE RIVER NEAR ARCADE, GA",United States of America,34.03166667,-83.5633333,861.1661159623827
hysets_02217500,"MIDDLE OCONEE RIVER NEAR ATHENS, GA",United States of America,33.94666667,-83.4227778,1015.8062618729058
hysets_02217615,"NORTH OCONEE R AT WOODBRIDGE RD, NEAR COMMERCE, GA",United States of America,34.20027778,-83.5158333,257.97236193129453
hysets_02217770,"NORTH OCONEE RIVER AT COLLEGE ST, AT ATHENS, GA",United States of America,33.96983658,-83.37738,713.8208067717537
hysets_02219000,"APALACHEE RIVER NEAR BOSTWICK, GA",United States of America,33.78817637,-83.4740513,456.1019950311092
hysets_02220900,"LITTLE RIVER NEAR EATONTON, GA",United States of America,33.3140213,-83.4371088,690.0644308863293
hysets_02221525,"MURDER CREEK BELOW EATONTON, GA",United States of America,33.25235506,-83.4812762,492.7128509904472
hysets_02223190,"COMMISSIONER CREEK AT US 441, AT MCINTYRE, GA",United States of America,32.8498693,-83.1929324,404.6245131456744
hysets_02223360,"BIG SANDY CREEK AT US 441, NEAR IRWINTON, GA",United States of America,32.76653786,-83.1679321,476.1416527427219
hysets_02226100,"PENHOLOWAY CREEK NEAR JESUP, GA",United States of America,31.56688297,-81.8381694,516.9750388040864
hysets_02227270,"ALABAHA RIVER AT GA 203, NEAR BLACKSHEAR, GA",United States of America,31.37549219,-82.288736,979.9276132539596
hysets_02227500,"LITTLE SATILLA RIVER NEAR OFFERMAN, GA",United States of America,31.45132604,-82.054561,1703.4310574260817
hysets_02231000,"ST. MARYS RIVER NEAR MACCLENNY, FL",United States of America,30.35884726,-82.0815013,1855.8087925194325
hysets_02231342,"FT DRUM CREEK AT SUNSHINE ST PKY NEAR FT DRUM, FL",United States of America,27.5686473,-80.7961709,137.5405692768611
hysets_02232415,"TAYLOR CREEK NEAR COCOA, FL",United States of America,28.3525071,-80.9283928,150.63267216079583
hysets_02232460,"JIM CREEK AT FISH HOLE ROAD NEAR CHRISTMAS, FL",United States of America,28.45972509,-80.946726,123.24616348998217
hysets_02233473,"LT ECONLOCKHATCHEE R AT UNIV BLVD NR UNION PK, FL",United States of America,28.5972218,-81.2256215,165.47347013719678
hysets_02233475,"LT ECONLOCKHATCHEE R AT STATE HWY434 NR OVIEDO, FL",United States of America,28.6199987,-81.20784299,176.39140155124218
hysets_02233484,"ECONLOCKHATCHEE RIVER NEAR OVIEDO, FL",United States of America,28.65555285,-81.169786,637.9374648156613
hysets_02233500,"ECONLOCKHATCHEE RIVER NEAR CHULUOTA, FL",United States of America,28.67777778,-81.1141667,679.3268414241682
hysets_02234344,"HOWELL CREEK AT STATE HWY 434 NEAR OVIEDO, FL",United States of America,28.68999664,-81.2475656,147.57053543138943
hysets_02234635,"WEKIVA RIVER NEAR APOPKA, FL",United States of America,28.71360726,-81.4453482,155.65156519344845
hysets_022349993,"WEKIVA RIVER AT OLD RR CROSSING NEAR SANFORD, FL",United States of America,28.79277096,-81.4134022,441.2750213317057
hysets_02235000,"WEKIVA RIVER NEAR SANFORD, FL",United States of America,28.81527009,-81.41923539,451.19614323991976
hysets_02235200,"BLACKWATER CREEK NEAR CASSIA, FL",United States of America,28.87444444,-81.4897222,300.15696060393907
hysets_02237293,"PALATLAKAHA R AT STRUCTURE M-1, NR OKAHUMPKA, FL",United States of America,28.7444364,-81.8725798,645.4935387385724
hysets_02237700,"APOPKA-BEAUCLAIR CANAL NEAR ASTATULA, FL",United States of America,28.72249444,-81.6847976,464.232625601639
hysets_02238000,"HAYNES CREEK AT LISBON, FL",United States of America,28.87082178,-81.7836894,1864.4352436625009
hysets_02240902,"PRAIRIE CREEK NEAR GAINESVILLE, FL",United States of America,29.61163537,-82.2487121,281.5206942081907
hysets_02245050,"ETONIA CREEK AT BARDIN, FL",United States of America,29.7169118,-81.7250868,587.7936419668426
hysets_02245140,"SIMMS CREEK NEAR BARDIN, FL",United States of America,29.7355228,-81.70980879,122.27894366637494
hysets_02245500,"SOUTH FORK BLACK CREEK NEAR PENNEY FARMS, FL",United States of America,29.9794075,-81.8520426,350.6351425250563
hysets_02246000,"NORTH FORK BLACK CREEK NEAR MIDDLEBURG, FL",United States of America,30.1132953,-81.9064915,451.3554701850981
hysets_02246318,"ORTEGA RIVER AT KIRWIN ROAD NEAR JACKSONVILLE,FL",United States of America,30.19635087,-81.7684315,110.12981335363786
hysets_02256500,"FISHEATING CREEK AT PALMDALE, FL",United States of America,26.9325585,-81.3147949,825.7916400963741
hysets_02262900,"BOGGY CREEK NEAR TAFT, FL",United States of America,28.37139699,-81.3106247,217.113916983462
hysets_02264100,"BONNET CREEK NEAR VINELAND, FL",United States of America,28.32528785,-81.5206284,112.74409180115384
hysets_02266496,"REEDY CREEK BELOW S-40, NEAR LOUGHMAN, FL",United States of America,28.27584517,-81.54368439,484.85654184691816
hysets_02267000,"CATFISH CREEK NEAR LAKE WALES, FL",United States of America,27.96141068,-81.49646319,168.97877968448458
hysets_02269520,LIVINGSTON CREEK NEAR FROSTPROOF FL,United States of America,27.708641,-81.4464626,307.7437365424449
hysets_02271500,JOSEPHINE CREEK NEAR DE SOTO CITY FL,United States of America,27.3742078,-81.3934062,308.2903526036379
hysets_02293987,PEACE CREEK DRAINAGE CANAL NEAR WAHNETA FL,United States of America,27.92474686,-81.7267463,431.07347507541897
hysets_02294217,SADDLE CREEK AT ST.HWY 542 NEAR LAKELAND FL,United States of America,28.04418733,-81.876192,151.06326774542603
hysets_02294650,PEACE RIVER AT BARTOW FL,United States of America,27.90224784,-81.8173036,1032.497484239384
hysets_02294655,PEACE RIVER NEAR BARTOW FL,United States of America,27.88305556,-81.8044444,1048.9495042711867
hysets_02294775,PEACE RIVER AT CLEAR SPRINGS NEAR BARTOW FL,United States of America,27.86333333,-81.8075,1057.3443760238963
hysets_02294898,PEACE RIVER AT FORT MEADE FL,United States of America,27.7514193,-81.7820266,1248.448322562492
hysets_02295420,PAYNE CREEK NEAR BOWLING GREEN FL,United States of America,27.62059006,-81.8256384,316.12345385725223
hysets_02296222,LITTLE CHARLEY BOWLEGS C AB CT NEAR SEBRING FL,United States of America,27.4780935,-81.5567431,120.15071038275111
hysets_02296260,CHARLIE CREEK NEAR CREWSVILLE FL,United States of America,27.45948376,-81.6784128,497.3366793406258
hysets_02296500,CHARLIE CREEK NEAR GARDNER FL,United States of America,27.37504297,-81.7964708,887.9122706649515
hysets_02297100,JOSHUA CREEK AT NOCATEE FL,United States of America,27.16671794,-81.8795282,351.09186290536354
hysets_02297155,HORSE CREEK NEAR MYAKKA HEAD FL,United States of America,27.4872613,-82.0234197,93.5885002946014
hysets_02297310,HORSE CREEK NEAR ARCADIA FL,United States of America,27.19949477,-81.9884193,529.511305393067
hysets_02298123,PRAIRIE CREEK NEAR FORT OGDEN FL,United States of America,27.05199986,-81.7845267,541.4610001773431
hysets_02298202,SHELL CREEK NEAR PUNTA GORDA FL,United States of America,26.98478094,-81.9356414,887.8820789129906
hysets_02298608,MYAKKA RIVER AT MYAKKA CITY FL,United States of America,27.3436562,-82.1567556,312.46419361950325
hysets_02298830,MYAKKA RIVER NEAR SARASOTA FL,United States of America,27.240605,-82.3137035,575.9188025862835
hysets_02299450,BIG SLOUGH AT TROPICAIRE BLVD NEAR NORTH PORT FL,United States of America,27.12116517,-82.1934239,196.74583279481612
hysets_02299455,BIG SLOUGH CANAL AT N. PORT CHARLOTTE FL,United States of America,27.1086657,-82.2053687,200.3013355695257
hysets_02299472,BIG SLOUGH AT WEST PRICE BLVD NEAR NORTH PORT FL,United States of America,27.06933333,-82.2203333,221.6833450884885
hysets_02299950,MANATEE RIVER NEAR MYAKKA HEAD FL,United States of America,27.47365137,-82.211201,174.1068652479772
hysets_02300018,GAMBLE CREEK NEAR PARRISH FL,United States of America,27.55337054,-82.3895379,123.78148946425397
hysets_02300500,LITTLE MANATEE RIVER NEAR WIMAUMA FL,United States of America,27.67114344,-82.3525925,405.5901330805445
hysets_02301000,NORTH PRONG ALAFIA RIVER AT KEYSVILLE FL,United States of America,27.8839148,-82.10008689,347.31133830642494
hysets_02301300,SOUTH PRONG ALAFIA RIVER NEAR LITHIA FL,United States of America,27.79669525,-82.1175877,281.61069510594643
hysets_02301500,ALAFIA RIVER AT LITHIA FL,United States of America,27.872248,-82.2112008,872.9194594871017
hysets_02301988,HILLSBOROUGH RIVER AT HWY 39 NR CRYSTAL SPRINGS FL,United States of America,28.19334443,-82.16508419,208.797753116256
hysets_02301990,HILLSBOROUGH R AB CRYSTAL SPR NEAR ZEPHYRHILLS FL,United States of America,28.18555556,-82.1841667,238.80303373468976
hysets_02302280,ITCHEPACKESASSA CREEK NEAR MORICZVILLE FL,United States of America,28.11946029,-82.1128623,137.3642514487825
hysets_02302500,BLACKWATER CREEK NEAR KNIGHTS FL,United States of America,28.1397222,-82.15,243.50241045823844
hysets_02303000,HILLSBOROUGH RIVER NEAR ZEPHYRHILLS FL,United States of America,28.15029044,-82.23175318,619.9952902154985
hysets_02303300,FLINT CREEK NEAR THONOTOSASSA FL,United States of America,28.0680729,-82.2675895,142.5024090800986
hysets_02303330,HILLSBOROUGH R AT MORRIS BR NEAR THONOTOSASSA FL,United States of America,28.0986111,-82.31138889,986.147661160854
hysets_02303400,CYPRESS CREEK NEAR SAN ANTONIO FL,United States of America,28.32388889,-82.3836111,127.42986637068051
hysets_02303420,CYPRESS CREEK AT WORTHINGTON GARDENS FL,United States of America,28.1872222,-82.4022222,292.2735728183561
hysets_02304500,HILLSBOROUGH RIVER NEAR TAMPA FL,United States of America,28.02390784,-82.4275939,1601.8642950237568
hysets_02309980,ANCLOTE RIVER NR ODESSA FL,United States of America,28.2216775,-82.63509859,159.49379821208467
hysets_02310000,ANCLOTE RIVER NEAR ELFERS FL,United States of America,28.21417784,-82.6664882,178.60195718827478
hysets_02310947,"WITHLACOOCHEE RIVER NEAR CUMPRESSCO, FL",United States of America,28.31195156,-82.05591468,650.532129558007
hysets_02311500,"WITHLACOOCHEE RIVER NEAR DADE CITY, FL",United States of America,28.3525042,-82.12591619,924.997468182111
hysets_02312200,"LITTLE WITHLACOOCHEE RIVER AT RERDELL, FL",United States of America,28.57277286,-82.155363,414.0464164456638
hysets_02312300,WITHLACOOCHEE RIVER AT RITAL FL,United States of America,28.5211073,-82.209253,1443.343311723731
hysets_02312640,"JUMPER CREEK CANAL NEAR BUSHNELL, FL",United States of America,28.6972136,-82.1039741,99.96942704491934
hysets_02312645,"JUMPER CREEK CANAL NEAR WAHOO, FL",United States of America,28.70443503,-82.1570313,146.4823218137959
hysets_02315920,"ALAPAHA RIVER AT GA 125/32 NEAR IRWINVILLE, GA",United States of America,31.63129589,-83.4179382,1114.0093828919466
hysets_02316000,"ALAPAHA RIVER NEAR ALAPAHA, GA",United States of America,31.3843626,-83.1923758,1700.5720875592556
hysets_02317748,"WITHLACOOCHEE R AT SKIPPER BR RD, NR BEMISS, GA",United States of America,30.95686635,-83.2698755,1288.6900162700367
hysets_023177483,"WITHLACOOCHEE RIVER AT MCMILLAN RD,NEAR BEMISS, GA",United States of America,30.9526998,-83.2684865,1290.873413709238
hysets_02317755,"WITHLACOOCHEE RIVER AT US 41 NEAR VALDOSTA, GA",United States of America,30.89269959,-83.318765,1389.0188888768205
hysets_02317797,"LITTLE RIVER AT UPPER TY TY ROAD, NEAR TIFTON, GA",United States of America,31.48185048,-83.5840559,332.7383220801252
hysets_02318000,"LITTLE RIVER NEAR ADEL, GA",United States of America,31.15555556,-83.5436111,1495.670423544295
hysets_02318700,"OKAPILCO CREEK AT GA 333, NEAR QUITMAN, GA",United States of America,30.82555556,-83.5625,704.9886139448199
hysets_02320700,"SANTA FE RIVER NEAR GRAHAM, FLA.",United States of America,29.84635394,-82.2195493,236.59961032768584
hysets_02321000,NEW RIVER NR LAKE BUTLER FLA,United States of America,29.9982954,-82.2739992,465.94876729690327
hysets_02321500,"SANTA FE RIVER AT WORTHINGTON SPRINGS, FLA.",United States of America,29.9219073,-82.4262246,1476.2885523271218
hysets_02324500,"FENHOLLOWAY RIVER AT FOLEY, FLA.",United States of America,30.06549165,-83.5579246,267.4518100846897
hysets_02325000,"FENHOLLOWAY RIVER NEAR PERRY, FLA",United States of America,30.0713236,-83.6623725,363.10530294333256
hysets_02326000,"ECONFINA RIVER NEAR PERRY, FLA.",United States of America,30.17076448,-83.8237679,436.6027253841608
hysets_02326500,"AUCILLA RIVER AT LAMONT, FLA.",United States of America,30.36992847,-83.80682559,1946.520649450195
hysets_02326900,"ST. MARKS RIVER NEAR NEWPORT, FLA.",United States of America,30.2714311,-84.1482508,1384.6196315400646
hysets_02327017,MUNSON SLOUGH AT CAPITAL CIR (NO.7) TALLAHASSEE FL,United States of America,30.3874227,-84.3135114,157.5007142957661
hysets_02327033,LOST CREEK AT ARRAN FLA,United States of America,30.18825753,-84.40823469,189.2146152296815
hysets_02327100,"SOPCHOPPY RIVER NR SOPCHOPPY, FLA.",United States of America,30.12936856,-84.4943482,274.6514068630685
hysets_02327355,"OCHLOCKONEE RIVER AT GA 188, NEAR COOLIDGE, GA",United States of America,31.0022222,-83.9391667,664.4856321999172
hysets_02327500,"OCHLOCKONEE RIVER NEAR THOMASVILLE, GA",United States of America,30.87574687,-84.0454502,1449.660695617214
hysets_02329500,"LITTLE RIVER NR QUINCY, FLA.",United States of America,30.58741806,-84.4965763,613.885771988584
hysets_02329600,"LITTLE RIVER NR MIDWAY, FLA.",United States of America,30.5124192,-84.5235206,790.6934932519413
hysets_02330100,"TELOGIA CREEK NR BRISTOL, FLA.",United States of America,30.426585,-84.92769349,324.5749971134712
hysets_02330400,"NEW RIVER NEAR SUMATRA, FLA",United States of America,30.03881356,-84.843799,382.0060481791064
hysets_02330450,"CHATTAHOOCHEE RIVER AT HELEN, GA",United States of America,34.7008333,-83.72888889,116.49654240826794
hysets_02331000,"CHATTAHOOCHEE RIVER NEAR LEAF, GA",United States of America,34.57704154,-83.6357316,392.2058306322207
hysets_023312495,"SOQUE RIVER AT GA 197, NEAR CLARKESVILLE, GA",United States of America,34.6186111,-83.52888889,243.4310476105655
hysets_02331600,"CHATTAHOOCHEE RIVER NEAR CORNELIA, GA",United States of America,34.5407222,-83.622775,821.702208782969
hysets_02333500,"CHESTATEE RIVER NEAR DAHLONEGA, GA",United States of America,34.52805556,-83.9397222,390.22711558708846
hysets_02336300,"PEACHTREE CREEK AT ATLANTA, GA",United States of America,33.81944444,-84.4077778,222.76289180799827
hysets_02336840,"SWEETWATER CREEK,BROWNSVILLE RD,POWDER SPRINGS,GA",United States of America,33.82732794,-84.7196579,253.4803385349897
hysets_02336968,"NOSES CREEK AT POWDER SPRINGS RD,POWDER SPRINGS,GA",United States of America,33.85927138,-84.6527123,114.68197816600347
hysets_02337000,"SWEETWATER CREEK NEAR AUSTELL, GA",United States of America,33.77660678,-84.6155445,624.6252748725889
hysets_02337040,"SWEETWATER CREEK BELOW AUSTELL, GA",United States of America,33.7209415,-84.614933,683.2570190349873
hysets_02337410,"DOG RIVER AT GA 5, NEAR FAIRPLAY, GA",United States of America,33.65380556,-84.8210278,172.23147237984952
hysets_02338400,"CENTRALHATCHEE CR AT US 27, NEAR FRANKLIN, GA",United States of America,33.3112284,-85.1049422,146.5232743202953
hysets_02338660,"NEW RIVER AT GA 100, NEAR CORINTH, GA",United States of America,33.2353974,-84.9877161,323.1978673613654
hysets_02338840,"YELLOWJACKET CREEK-HAMMETT RD, BLW HOGANSVILLE, GA",United States of America,33.1395665,-84.975215,233.89241589372455
hysets_02339225,"WEHADKEE CREEK BELOW ROCK MILLS, ALA.",United States of America,33.1223435,-85.2491113,155.14579777125252
hysets_02339495,OSELIGEE CREEK NEAR LANETT AL,United States of America,32.9015159,-85.1963308,224.59426259904265
hysets_02341725,"PINE KNOT CREEK NEAR EELBEECK, GA",United States of America,32.4393099,-84.7332603,170.14612430379984
hysets_02341800,"UPATOI CREEK NEAR COLUMBUS, GA",United States of America,32.41347774,-84.8199281,884.0642104647281
hysets_02341910,"OCHILLEE CREEK AT OCHILLEE, GA",United States of America,32.39388889,-84.8425,165.92561082481473
hysets_02342070,"UPATOI CREEK AT GA 357, AT FORT BENNING, GA",United States of America,32.37431279,-84.9579857,1162.6200641122186
hysets_02342500,"UCHEE CREEK NEAR FORT MITCHELL, AL.",United States of America,32.31681467,-85.014931,835.7000946086694
hysets_02342850,"HANNAHATCHEE CREEK AT UNION ROAD, AT UNION, GA",United States of America,32.15293116,-84.90576,311.39582050334246
hysets_02342933,SOUTH FORK COWIKEE CREEK NEAR BATESVILLE AL,United States of America,32.0176572,-85.2957704,290.29245901747254
hysets_02343225,"PATAULA CREEK NEAR GEORGETOWN, GA",United States of America,31.81849528,-84.9738155,762.7662969625172
hysets_02343300,ABBIE CREEK NEAR HALEBURG AL,United States of America,31.47350458,-85.162431,379.0683133940354
hysets_02343940,"SAWHATCHEE CREEK AT CEDAR SPRINGS, GA",United States of America,31.18083333,-85.0436111,168.2390049309339
hysets_02344350,"FLINT RIVER NEAR LOVEJOY, GA",United States of America,33.41555556,-84.3847222,330.6728620300796
hysets_02344396,"FLINT RIVER AT WOOLSEY ROAD, NEAR WOOLSEY, GA",United States of America,33.3597222,-84.3944444,412.1842332444264
hysets_02344500,"FLINT RIVER NEAR GRIFFIN, GA",United States of America,33.24416667,-84.4291667,697.3657815410515
hysets_02344700,"LINE CREEK NEAR SENOIA, GA",United States of America,33.31916667,-84.5222222,259.2429899796947
hysets_02349900,"TURKEY CREEK AT BYROMVILLE, GA",United States of America,32.19555556,-83.9022222,122.8250743147469
hysets_02350080,"LIME CREEK NEAR COBB, GA",United States of America,32.03388889,-83.99638889,160.08748744155878
hysets_02350600,"KINCHAFOONEE CREEK AT PRESTON, GA",United States of America,32.0525,-84.5483333,512.293406689319
hysets_02350900,"KINCHAFOONEE CREEK AT PINEWOOD ROAD, NR DAWSON, GA",United States of America,31.76444444,-84.2533333,1366.1432243612276
hysets_02351500,"MUCKALEE CREEK NEAR AMERICUS, GA",United States of America,32.08305556,-84.2580556,364.1655392599828
hysets_02351890,"MUCKALEE CREEK AT GA 195, NEAR LEESBURG, GA",United States of America,31.7761111,-84.1394444,944.344626855746
hysets_02353265,"ICHAWAYNOCHAWAY CREEK AT GA 37, NEAR MORGAN, GA",United States of America,31.52694444,-84.5827778,773.088459840406
hysets_02353400,"PACHITLA CREEK NEAR EDISON, GA",United States of America,31.555,-84.6808333,470.6667989515605
hysets_02353500,"ICHAWAYNOCHAWAY CREEK AT MILFORD, GA",United States of America,31.38277778,-84.54638889,1625.0475735389266
hysets_02354500,"CHICKASAWHATCHEE CREEK AT ELMODEL, GA",United States of America,31.35055556,-84.4825,825.4248593696948
hysets_02356980,"AYCOCKS CREEK NEAR BOYKIN, GA",United States of America,31.08657309,-84.7365862,273.4130819448992
hysets_02357000,"SPRING CREEK NEAR IRON CITY, GA",United States of America,31.04027778,-84.74,1249.2077477635462
hysets_02357150,"SPRING CREEK NEAR REYNOLDSVILLE, GA",United States of America,30.90407668,-84.7490864,1521.5342131691425
hysets_02358789,CHIPOLA RIVER AT MARIANNA FL,United States of America,30.77297064,-85.2163178,1350.1747833484649
hysets_02359500,"ECONFINA CREEK NEAR BENNETT, FLA.",United States of America,30.3846406,-85.5565932,295.09730258127485
hysets_02361000,"CHOCTAWHATCHEE RIVER NEAR NEWTON, AL.",United States of America,31.3429492,-85.6104912,1779.8871831319912
hysets_02363000,PEA RIVER NEAR ARITON AL,United States of America,31.59488716,-85.7829975,1293.6813290486452
hysets_02365470,"WRIGHTS CREEK AT SH 177-A NR BONIFAY,FL",United States of America,30.8571301,-85.7621545,386.5421766081393
hysets_02365769,"BRUCE CREEK AT SH 81 NR REDBAY, FL",United States of America,30.6246363,-85.9424358,212.39770986732756
hysets_02366000,"HOLMES CREEK AT VERNON, FLA.",United States of America,30.62685899,-85.7121531,1017.1029414789932
hysets_02366996,"ALAQUA CREEK NEAR PLEASANT RIDGE, FL",United States of America,30.66908,-86.1866092,100.96542808550282
hysets_02367006,"ALAQUA CREEK NEAR PORTLAND, FLORIDA",United States of America,30.5563056,-86.1791086,217.27570785501575
hysets_02367240,"ROCKY CREEK NR PORTLAND, FLA.",United States of America,30.5732502,-86.3668914,111.96854211373974
hysets_02367900,"YELLOW RIVER NR OAK GROVE, FLA.",United States of America,30.92518288,-86.5593967,1359.5096381415008
hysets_02368500,"SHOAL RIVER NR MOSSY HEAD, FLA.",United States of America,30.7960205,-86.3068906,317.28646525952234
hysets_02369000,"SHOAL RIVER NR CRESTVIEW, FLA.",United States of America,30.69741268,-86.570786,1209.4124596815698
hysets_02369800,BLACKWATER RIVER NEAR BRADLEY AL,United States of America,31.02767985,-86.7099567,227.25367062220332
hysets_02370000,"BLACKWATER RIVER NR BAKER, FLA.",United States of America,30.8335197,-86.7346786,534.8736364133376
hysets_02370500,"BIG COLDWATER CREEK NR MILTON, FLA.",United States of America,30.70852375,-86.972186,619.2567044598513
hysets_02370700,"POND CREEK NR MILTON, FLA.",United States of America,30.6807469,-87.1319134,167.6336329759787
hysets_02371500,CONECUH RIVER AT BRANTLEY AL,United States of America,31.57349458,-86.2516226,1258.9858406671942
hysets_02372250,PATSALIGA CREEK NEAR BRANTLEY AL,United States of America,31.59627177,-86.40551809,1145.921240421847
hysets_02373000,SEPULGA RIVER NEAR MCKENZIE AL,United States of America,31.4537758,-86.7869139,1214.6092870767138
hysets_02374500,MURDER CREEK NEAR EVERGREEN AL,United States of America,31.41850006,-86.9866403,456.4103643800252
hysets_02374700,"MURDER CREEK AT STATE HWY 41 AT BREWTON, AL.",United States of America,31.10101137,-87.06885829,1127.0595542469764
hysets_02374745,"BURNT CORN CREEK AT STATE HWY 41 NEAR BREWTON, AL.",United States of America,31.1298991,-87.0871928,472.5993814408752
hysets_02374950,BIG ESCAMBIA CR AT SARDINE BR NR STANLEY CROSSROAD,United States of America,31.12962115,-87.3705353,504.01484561482977
hysets_02375000,BIG ESCAMBIA CREEK AT FLOMATON AL,United States of America,31.01073709,-87.2627518,860.0008299597288
hysets_02376000,"PINE BARREN CREEK NEAR BARTH, FLA.",United States of America,30.7987991,-87.3680333,195.61851148192403
hysets_02376300,"BRUSHY CREEK NEAR WALNUT HILL, FLA.",United States of America,30.88935179,-87.5399837,134.18518490085296
hysets_02376500,"PERDIDO RIVER AT BARRINEAU PARK, FL",United States of America,30.69046866,-87.440258,1015.5351310078166
hysets_02377570,"STYX RIVER NEAR ELSANOR, AL.",United States of America,30.6057484,-87.5472057,495.90563047673646
hysets_02377960,"BLACKWATER RIVER AT CO RD 87 NEAR ELSANOR, AL.",United States of America,30.51158404,-87.5816504,147.66176341431716
hysets_02378500,FISH RIVER NEAR SILVER HILL AL,United States of America,30.54547146,-87.79860149,144.9518783231969
hysets_02379500,"CARTECAY RIVER NEAR ELLIJAY, GA",United States of America,34.68425248,-84.4585376,347.89414429388785
hysets_02380500,"COOSAWATTEE RIVER NEAR ELLIJAY, GA",United States of America,34.67508566,-84.5085398,611.9058871253555
hysets_02381090,"MOUNTAINTOWN CREEK AT GA 282, NEAR ELLIJAY, GA",United States of America,34.70314028,-84.5393744,159.736085667293
hysets_02383180,"SALACOA CREEK AT CR 29, NEAR REDBUD, GA",United States of America,34.51675408,-84.79716019,565.5470194317807
hysets_02384500,"CONASAUGA RIVER AT GA 286, NEAR ETON, GA",United States of America,34.82785726,-84.8507749,653.4648267077289
